SchoolName,Street,City,State,Zip,Address,PhysicalAddress,PhysicalCity,PhysicalState,PhysicalZip,Phone,Email,Website,Administrator,latitude,longitude
A Sea of Learning,2410 Arendell Street,Morehead City,NC,28557,"2410 Arendell Street Morehead City, NC 28557",4723 Country Club Road,Morehead City,NC,28557,(252) 240-2566,info@aseaoflearning.org,www.aseaoflearning.org,Terri Morley Fowler,34.72327811,-76.73563251
ABC of NC Child Develop. Ctr,905 Friedberg Church Rd.,Winston-Salem,NC,27127,"905 Friedberg Church Rd. Winston-Salem, NC 27127",905 Friedberg Church Rd.,Winston-Salem,NC,27127,(336) 251-1180,leighellen.spencer@abcofnc.org,www.abcofnc.org,Mrs. Selene  Johnson,35.99588399,-80.27287506
Abundant Life Christian Academy,4224 Blanchard Cir.,Indian Trail,NC,28079,"4224 Blanchard Cir. Indian Trail, NC 28079",4224 Blanchard Cir.,Indian Trail,NC,28079,(704) 251-5859,a.guzman@abundantlifenc.academy,NA,Alisha  Guzman,35.05016867,-80.68271564
Academy at SOAR,112 Virginia Ave. Bldg. B,Waynesville,NC,28786,"112 Virginia Ave. Bldg. B Waynesville, NC 28786",112 Virginia Ave. Bldg. B,Waynesville,NC,28786,(828) 456-3315,joe@soarnc.org,www.academyatsoar.org,Mr. Jospeh D. Geier,35.47786931,-82.99950422
Academy of Coastal Carolina,434 Mt. Pisgah Rd,Supply,NC,28462,"434 Mt. Pisgah Rd Supply, NC 28462",434 Mt. Pisgah Rd SW,Supply,NC,28462,(910) 754-9637,lhall@theacademyofcoastalcarolina.org,www.theacademyofcoastalcarolina.org,Mrs. Lydia C. Hall,33.99295832,-78.3025365
Academy of Excellence,612 South Race Street,Statesville,NC,28677,"612 South Race Street Statesville, NC 28677",612 South Race Street,Statesville,NC,28677,(704) 500-4220,aofexcellence@yahoo.com,www.aoe.org,Dr. Carl D. Lykes,35.77642219,-80.89300627
Academy of Unique Learners,937 S MCPHERSON CHURCH RD,Fayetteville,NC,28303,"937 S MCPHERSON CHURCH RD Fayetteville, NC 28303",NA,NA,NA,NA,(910) 229-1795,Jazzmine.Admin@academyofunique.com,NA,Jazzmine Adell Stewart,35.0480922,-78.93754269
Academy of Unique Learners,340 Northeast Blvd  Clinton NC 28328,Clinton,NC,28328,"340 Northeast Blvd  Clinton NC 28328 Clinton, NC 28328",NA,NA,NA,NA,(910) 882-1849,Clinton.Admin@academyofunique.com,NA,Jazzmine Adell Stewart,35.01113925,-78.31876361
Academy31,3504 Edwards Mill Rd,Raleigh,NC,27612,"3504 Edwards Mill Rd Raleigh, NC 27612",3504 Edwards Mill Rd,Raleigh,NC,27612,(919) 977-8920,info@academy31.org,academy31.org,Kimberly Hall Wilson,35.82766653,-78.70328033
Adaptive Learning Academy,12030 Bay Tree Way,Charlotte,NC,28277,"12030 Bay Tree Way Charlotte, NC 28277",709 Northeast Drive Suite 23,Davidson,NC,28036,(704) 771-5282,syrondamills@adaptivelearningclt.com,adaptivelearningclt.com,Syronda  McCorkle Mills,35.04494345,-80.80190191
Advance IB Academy,401 hawthorne lane suite 110-229,Charlotte,NC,28204,"401 hawthorne lane suite 110-229 Charlotte, NC 28204",3509 David cox rd #M,charlotte,NC,28269,(704) 978-7625,records@advanceib.org,NA,Casandra Deshawnna Blasse,35.21585915,-80.82209839
Adventist Christian Academy,4601 Emory Lane,Charlotte,NC,28211,"4601 Emory Lane Charlotte, NC 28211",4601 Emory Lane,Charlotte,NC,28211,(704) 366-4351,acaoffice@adventistchristianacademy.org,www.adventistchristianacademy.org,Mr. Terry  Tryon,35.17890133,-80.78734125
Agape Christian Academy,1431 Freeway Drive,Reidsville,NC,27320,"1431 Freeway Drive Reidsville, NC 27320",1431 Freeway Drive,Reidsville,NC,27320,(336) 613-0346,anthony0346@yahoo.com,NA,George Anthony Rucker,36.34126835,-79.69317562
AHOP Christian Leadership Academy  Inc.,200 Currie Street  Ste 102,Chapel Hill,NC,27517,"200 Currie Street  Ste 102 Chapel Hill, NC 27517",50101 Governors Drive,Chapel Hill,NC,27517,(919) 589-4529,admin@myacla.org,myacla.org,Tish S. Fields,35.85699662,-79.02535536
Ahoskie Christian School,500-504 Kiwanis Street,Ahoskie,NC,27910,"500-504 Kiwanis Street Ahoskie, NC 27910",500-504 Kiwanis Street,Ahoskie,NC,27910,(252) 332-2764,ahoskiefwb@gmail.com,www.ahoskiechristianschool.com,Mrs. Elaine  Pool,36.27871821,-76.97623491
Alamance Christian School,PO Box 838  1336 Town Branch Road,Graham,NC,27253,"PO Box 838  1336 Town Branch Road Graham, NC 27253",1336 Town Branch Road,Graham,NC,27253,(336) 578-0318,mloflin@alamancechristianschool.org,www.alamancechristianschool.org,Mr. Michael  Loflin,36.07307902,-79.37222684
Albemarle School,1210 US HWY 17 S,Elizabeth City,NC,27909,"1210 US HWY 17 S Elizabeth City, NC 27909",1210 US HWY 17 S,Elizabeth City,NC,27909,(252) 338-0883,t.simpson@thealbemarleschool.org,www.thealbemarleschool.org,Dr. Tracie M. Simpson,36.27691556,-76.28306467
ALC Mosaic,6100 Monroe Road,Charlotte,NC,28212,"6100 Monroe Road Charlotte, NC 28212",6100 Monroe Road,Charlotte,NC,28212,(704) 709-9886,info@alcmosaic.org,alcmosaic.org,Tomis  Parker,35.1840626,-80.76132828
Alex. Youth Net. Struc Day Sch,309 Concord Street  Suite 201,Greensboro,NC,27406,"309 Concord Street  Suite 201 Greensboro, NC 27406",309 Concord Street  Suite 201,Greensboro,NC,27406,(336) 273-4687,mnichols@youthfocus.org,www.youthfocus.org,Ms. Mary  Cooper,36.04325631,-79.79714562
Alexander Children's Center,6220 Thermal Road,Charlotte,NC,28211,"6220 Thermal Road Charlotte, NC 28211",6220 Thermal Road,Charlotte,NC,28211,(704) 366-8712,lshinhoster@alexanderyouthnetwork.org,www.alexanderyouthnetwork.org,Mr. Leonard  Shinhoster,35.16086002,-80.75587601
Alexander Christian Academy,3919 Icard Ridge Road,Hickory,NC,28601,"3919 Icard Ridge Road Hickory, NC 28601",3919 Icard Ridge Road; 250 Hiddenite Church Road; 61 C. I. Chatman Court,Hickory,NC,28601,(828) 471-7826,agettler@alexanderchristianacademy.com,www.alexanderchristianacademy.com,Mrs. Angela  Gettler,35.83327345,-81.33591391
Alexander Youth Network School,1601 Huffine Mill Road,Greensboro,NC,27405,"1601 Huffine Mill Road Greensboro, NC 27405",1601 Huffine Mill Road,Greensboro,NC,27405,(336) 375-5502,aleach@aynkids.org,www.alexanderyouthnetwork.org,Ms. Adrienne  Leach,36.09676421,-79.72735105
Al-Huda Academy,5104 Revere Road,Durham,NC,27713,"5104 Revere Road Durham, NC 27713",5104 Revere Road,Durham,NC,27713,(919) 572-9500,alhudanc@gmail.com,www.alhudaacademy.net,Ms. Zainab  Abdul-Qaabidh,35.89339787,-78.90956616
Al-Huda Academy at N.Raleigh,2220 Jones Franklin Rd,Raleigh,NC,27606,"2220 Jones Franklin Rd Raleigh, NC 27606",5017 Deah Way,Raleigh,NC,27616,(919) 727-9342,hamdy.radwan@alhudaacademy.net,https://www.nr.alhudaacademy.net/,Hamdy A Radwan,35.75064026,-78.73376697
Al-Iman School,3020 Ligon Street,Raleigh,NC,27607,"3020 Ligon Street Raleigh, NC 27607",3020 Ligon Street,Raleigh,NC,27607,(919) 821-1699,principal@alimancrescent.org,www.alimanschool.org,Mrs. Farea  Khan,35.78916416,-78.69093303
All Saints Parochial School,15 McDowell Rd,Mills River,NC,28759,"15 McDowell Rd Mills River, NC 28759",NA,NA,NC,NA,(828) 891-7216,school@allsaintsmillsriver.org,NA,Erich Antony Zwingert,35.41898765,-82.57672828
Amandla Academy,5001 Tower Rd  Unit B,GREENSBORO,NC,27410,"5001 Tower Rd  Unit B GREENSBORO, NC 27410",2757 Granville Street,High Point,NC,27263,(336) 392-8099,kmarcusbrandon@gmail.com,NA,Kenneth  Brandon,36.07671461,-79.87913589
Ambassador Christian School,11901 Sam Furr Road,Huntersville,NC,28078,"11901 Sam Furr Road Huntersville, NC 28078",2520 Ambassador Christi,Huntersville,NC,28078,(704) 850-5466,dr.g@ambassadorchristian.com,www.ambassadorchristian.com,Zach V Gautier,35.44678949,-80.82939862
Ambleside Preparatory Academy,508 Breckenridge Lane,Kinston,NC,28504,"508 Breckenridge Lane Kinston, NC 28504",1003 W. New Bern Road,Hookerton,NC,28538,(252) 559-9284,amblesideprepacademy@gmail.com,NA,Joanna Lindsay Pike,35.18004491,-77.6397413
American Heritage Academy,14111 Capital Blvd.,Wake Forest,NC,27587,"14111 Capital Blvd. Wake Forest, NC 27587",NA,NA,NA,NA,(919) 744-5204,emartinez@charter.one,NA,Erica  Martinez,36.01682816,-78.51552848
American Leadership Academy,900 16th St,Greensboro,NC,27405,"900 16th St Greensboro, NC 27405",NA,NA,NA,NA,(972) 900-0132,syed.kamal@americanleadershipacademy.online,https://americanleadershipacademy.online/north-car,Syed Mohammad Kamal,36.10911225,-79.77834114
Anami Montessori School,2901 Archdale Drive,Charlotte,NC,28210,"2901 Archdale Drive Charlotte, NC 28210",2901 Archdale Drive,Charlotte,NC,28210,(704) 556-0042,office@anamimontessori.org,www.anamimontessori.org,Mrs. Joan  Horlbeck,35.1472059,-80.85422856
Anchor Baptist Academy,3232 Hendersonville Hwy.,Pisgah Forest,NC,28768,"3232 Hendersonville Hwy. Pisgah Forest, NC 28768",3232 Hendersonville Hwy.,Pisgah Forest,NC,28768,(828) 884-7610,supervisor@anchorbaptist.org,NA,Dr. Randy C. Barton,35.29190815,-82.62491441
An-Noor School,808 Atwater Street,raleigh,NC,27607,"808 Atwater Street raleigh, NC 27607",808 Atwater Street,Raleigh,NC,27607,(919) 931-6709,office@annoorquranacademy.org,http://annoorquranacademy.org/,Sarwat  Ahmad,35.78994097,-78.69056291
Annunciation Catholic School,246 E. Main Street,Havelock,NC,28532,"246 E. Main Street Havelock, NC 28532",246 E. Main Street,Havelock,NC,28532,(252) 447-3137,principal@acsnc.net,www.annunciationcatholicnc.org,Dr. Cathy  Tomon,34.8775609,-76.90438312
Antioch Christian Academy,5071 Old Whiteville Road,Lumberton,NC,28358,"5071 Old Whiteville Road Lumberton, NC 28358",5071 old Whiteville Rd,lumberton,NC,28358,(910) 735-1011,jessealey@acanc.org,www.acanc.org,Jes  Sealey,34.57454824,-78.91681074
Apogee Anson,700 Jacks Branch Rd.,Wadesboro,NC,28170,"700 Jacks Branch Rd. Wadesboro, NC 28170",1012 Red Hill - Mt. Vernon Rd.,Wadesboro,NC,28170,(704) 465-1378,info@apogeeanson.com,www.apogeeanson.com,Matthew Shay Carpenter,35.08384482,-80.10785213
APP Young Scholar Academy,2212 Eastchester Drive,High Point,NC,27265,"2212 Eastchester Drive High Point, NC 27265",NA,NA,NC,NA,(336) 313-3088,Keeyama@apurposefulplace.com,NA,Keeyama  Williams-Mumford,36.02167572,-79.97455355
Arborbrook Christian Academy,4823 Waxhaw-Indian Trail Rd.,Matthews,NC,28104,"4823 Waxhaw-Indian Trail Rd. Matthews, NC 28104",4823 Waxhaw-Indian Trail Rd.,Matthews,NC,28104,(704) 821-9952,andy.zawacki@arborbrook.org,www.arborbrook.org,Andrew  Zawacki,35.02039125,-80.69362286
Arise Christian Academy,439 Sandy Run Church Rd,Mooresboro,NC,28114,"439 Sandy Run Church Rd Mooresboro, NC 28114",439 Sandy Run Church Rd,Mooresboro,NC,28114,(828) 214-7858,arisetrailblazers@gmail.com,https://trailblazersarise.com,Kelli Covil Duncan,35.28530494,-81.69443849
Arlington Christian Academy,9801 Arlington Church Road,Mint Hill,NC,28227,"9801 Arlington Church Road Mint Hill, NC 28227",9801 Arlington Church Road,Mint Hill,NC,28227,(704) 545-4589,csustar@arlingtonacademy.org,www.arlingtonacademy.org,Cindy Ann Sustar,35.20548401,-80.61171792
Asheboro Hybrid Academy,4751 Dunbar Bridge Road,Asheboro,NC,27205,"4751 Dunbar Bridge Road Asheboro, NC 27205",4751 Dunbar Bridge Road,Asheboro,NC,27205,(336) 857-2108,admissions@asheborohybridacademy.com,asheborohybridacademy.com,Nena  Conner,35.65308281,-79.97613145
Asheville Academy for Girls,126 Camp Elliot Road,Black Mountain,NC,28711,"126 Camp Elliot Road Black Mountain, NC 28711",126 Camp Elliot Road,Black Mountain,NC,28711,(828) 419-8100,cat@ashevilleacademy.com,www.ashevilleacademy.com,Catherine  Jennings,35.52920997,-82.20579986
Asheville Catholic School,12 Culvern Street,Asheville,NC,28804,"12 Culvern Street Asheville, NC 28804",12 Culvern Street,Asheville,NC,28804,(828) 252-7896,mstuart@ashevillecatholic.org,www.ashevillecatholic.org,Fr. Pat  Cahill,35.6313802,-82.5514668
Asheville Montessori School,360 Weaverville Rd.,Asheville,NC,28804,"360 Weaverville Rd. Asheville, NC 28804",360 Weaverville Rd.,Asheville,NC,28804,(828) 645-3433,ashevillemontessori@gmail.com,www.ashevillemontessorischool@gmail.com,Phil F Gregory,35.66226024,-82.58229169
Asheville School,360 Asheville School Road,Asheville,NC,28806,"360 Asheville School Road Asheville, NC 28806",360 Asheville School Road,Asheville,NC,28806,(828) 254-6345,sgroa@ashevilleschool.org,www.ashevilleschool.org,Dr. Anthony  Sgro,35.56302027,-82.62086076
Asheville Waldorf School,376 Hendersonville Rd.,Asheville,NC,28803,"376 Hendersonville Rd. Asheville, NC 28803",376 Hendersonville Rd.,Asheville,NC,28803,(828) 575-2557,info@ashevillewaldorf.org,www.ashevillewaldorf.org,Becky  Crosswhite,35.55687541,-82.53799579
Asheville-Pisgah Christian Sch.,90 Academy Drive,Candler,NC,28715,"90 Academy Drive Candler, NC 28715",90 Academy Drive,Candler,NC,28715,(828) 667-3255,apcs.principal@ashevillepisgah.org,www.ashevillepisgah.org,Erin  Miller,35.56962198,-82.66974588
Assembly of Faith Chr. Sch.,1030 Lower Dallas Hwy,Dallas,NC,28034,"1030 Lower Dallas Hwy Dallas, NC 28034",1030 Lower Dallas Hwy,Dallas,NC,28034,(704) 922-1149,assemblyoffaithchildcare@gmail.com,NA,Mrs. Melissa  Ray-Elders,35.30116126,-81.15919839
Bailey's Grove Baptist School,624 Pleasant Cross Rd.,Asheboro,NC,27203,"624 Pleasant Cross Rd. Asheboro, NC 27203",624 Pleasant Cross Rd.,Asheboro,NC,27203,(336) 626-5050,school.bgbc@gmail.com,NA,Mr. Sean  Cook,35.73569162,-79.71961372
Bal Perazim Christian Academy,4921 Bragg Boulevard,Fayetteville,NC,28303,"4921 Bragg Boulevard Fayetteville, NC 28303",4921 Bragg Boulevard,Fayetteville,NC,28303,(910) 487-4220,Academy@BPAcademy.org,"www.balperazim.org  link"" B P Academy""",Dr. Morris K. Braxton,35.09272061,-78.95495799
Beacon Academy,4405 Liguria Ct,Summerfield,NC,27358,"4405 Liguria Ct Summerfield, NC 27358",8430 Southard Rd,Stokesdale,NC,27357,(703) 599-4931,learn@beaconacademync.org,www.beaconacademync.org,Meredith Chrysten Carlton,36.18352931,-79.88224865
Beacon Christian Academy,100 Beacon Drive,Kitty Hawk,NC,27949,"100 Beacon Drive Kitty Hawk, NC 27949",100 Beacon Drive,Kitty Hawk,NC,27949,(252) 715-3235,info@beaconobx.com,Beaconobx.com,Christopher  Wilson,36.06262392,-75.69380591
Bear Town Academy   LLC,801 S Glenburnie Rd,New Bern,NC,28561,"801 S Glenburnie Rd New Bern, NC 28561",801 S Glenburnie Rd,New Bern,NC,28562,(252) 671-5459,beartownacademy@gmail.com,NA,Sonya  Simmons,35.13018812,-77.08055964
Beaufort County Micro School,601 East 11th Street,Washington,NC,27889,"601 East 11th Street Washington, NC 27889",NA,NA,NA,NA,(252) 295-7551,k12@beaufortmicroschool.org,NA,Kimberly  Waltower,35.54837566,-77.04097554
Berean Baptist Academy,518 Glensford Drive,Fayetteville,NC,28314,"518 Glensford Drive Fayetteville, NC 28314",518 Glensford Drive,Fayetteville,NC,28314,(910) 868-2511,records.bbc@gmail.com,www.bbafnc.org,Mr. Jack  Farmer,35.05752966,-78.96306986
Berean Christian School,4135 Thomasville Road,Winston-Salem,NC,27107,"4135 Thomasville Road Winston-Salem, NC 27107",4135 Thomasville Road,Winston-Salem,NC,27107,(336) 785-0527,bereanchristianschoolwsnc@gmail.com,bereanchristianschool.com,Dr. Ron  Baity,36.04050656,-80.18250463
Berean Junior Academy,3748 Beatties Ford Road,Charlotte,NC,28216,"3748 Beatties Ford Road Charlotte, NC 28216",3748 N. Beatties Ford Road,Charlotte,NC,28216,(704) 391-7666,vcrawford@sacsda.org,www.bereanjunioracademy.org,Dr. Sharon  Johnson,35.28562476,-80.85830486
Bethany Christian School,135 Bert Lane Road,Brevard,NC,28712,"135 Bert Lane Road Brevard, NC 28712",135 Bert Lane Rd,Brevard,NC,28712,(828) 884-9815,lynn.taylor@bcsbrevard.org,www.bethanybaptistministries.org,Mr. Lynn  Taylor,35.21580443,-82.71467707
Bethany Christian School,584 Tower Rd.,Thomasville,NC,27360,"584 Tower Rd. Thomasville, NC 27360",584 Tower Rd.,Thomasville,NC,27360,(336) 410-1908,volunteerfields@gmail.com,www.bethanychristianschoolnc.com,Crystal  Fields,35.85771285,-80.05961445
Bethel Assembly Christian Acad.,105 Askewville Bryant St.,Windsor,NC,27983,"105 Askewville Bryant St. Windsor, NC 27983",105 Askewville Bryant Street,Windsor,NC,27983,(252) 794-4034,askewvilleag@embarqmail.com,http://askewvilleassembly.com,Ms. Amanda  Hoggard,36.11174888,-76.94417672
Bethel Christian Academy,100 Park Street,Canton  NC,NC,28716,"100 Park Street Canton  NC, NC 28716",100 Park Street,Canton,NC,28716,(828) 648-4492,bethelchristianacademy3@gmail.com,www.bcacanton.org,Mrs. Clara  Deaver,35.53119902,-82.84675652
Bethel Christian Academy,1936 Banks School Road,Kinston,NC,28504,"1936 Banks School Road Kinston, NC 28504",1936 Banks School Road,Kinston,NC,28504,(260) 568-3009,dphillips@bethelfwb.com,www.bcatrojans.com,Mr. Doug  Phillips,35.28179183,-77.64631536
Bethel Christian Academy,12021  S. US 19 E.,Spruce Pine,NC,28777,"12021  S. US 19 E. Spruce Pine, NC 28777",12021 US Highway 19E,Spruce Pine,NC,28777,(828) 765-0510,pastordarrin@bellsouth.net,www.bethelchristianacademy.org,Dr. Darrin  Waldroup,35.93675664,-82.00975335
Bethesda Christian Academy,1914 S. Miami Boulevard,Durham,NC,27703,"1914 S. Miami Boulevard Durham, NC 27703",1914 S. Miami Boulevard,Durham,NC,27703,(919) 598-0190,brenda.brown@bcacrusaders.org,www.BCAcrusaders.org,Dr. S. L. Sherrill,35.94378553,-78.83829463
Bible Wesleyan Chr. Sch.,106 Moore's Chapel Cemetery Rd.,Graham,NC,27253,"106 Moore's Chapel Cemetery Rd. Graham, NC 27253",106 Moore's Chapel Cemetery Rd.,Graham,NC,27253,(336) 376-3913,bwcs@emypeople.net,NA,Rev. Brian  Covert,35.95015599,-79.3724788
Birds Nest Montessori School,6867 Raeford Road,fayetteville,NC,28304,"6867 Raeford Road fayetteville, NC 28304",6867 Raeford Road,Fayetteville,NC,28304,(910) 867-4073,birdsnestmontessorischool@yahoo.com,www.Birdsnestmontessorischool@yahoo.com,Marlene  Vargas,35.03713899,-79.00919858
Bishop McGuinness Catholic H. S.,1725 NC Highway 66 South,Kernersville,NC,27284,"1725 NC Highway 66 South Kernersville, NC 27284",1725 NC Highway 66 South,Kernersville,NC,27284,(336) 564-1010,jrashford@bmhs.us,www.bmhs.us,Jared  Rashford,36.0779748,-80.06251872
Black Mountain Academy,501 W. State Street,Black Mountain,NC,28711,"501 W. State Street Black Mountain, NC 28711",501 W. State Street,Black Mountain,NC,28711,(828) 242-6936,bmoffitt@theblackmountainacademy.com,https://theblackmountainacademy.com,Brandon  Moffitt,35.61433709,-82.32542535
Black Mountain Montesorri,101 Carver Avenue,Black Mountain,NC,28711,"101 Carver Avenue Black Mountain, NC 28711",101 Carver Ave.,Black Mountain,NC,28711,(828) 669-8571,office@bmtmont.org,www.bmtmont.org,Erin  Van Note,35.61513839,-82.34066031
Blessed Sacrament Catholic Sch.,515 Hillcrest Avenue,Burlington,NC,27215,"515 Hillcrest Avenue Burlington, NC 27215",515 Hillcrest Avenue,Burlington,NC,27215-3841,(336) 570-0019,office@bssknights.org,www.bssknights.org,Mrs. Maria  Iniquen-Gomez,36.09395379,-79.44592748
Blue Ridge Adventist Christian School,119 Hampshire Drive,Waynesville,NC,28786,"119 Hampshire Drive Waynesville, NC 28786",119 Hampshire Drive,Waynesville,NC,28786,(828) 400-8681,bracschool@gmail.com,www.bracs.org,Ms. Beth  Hoosier,35.52344835,-82.99095909
B'nai Shalom Day School,804-A Winview Drive,Greensboro,NC,27410,"804-A Winview Drive Greensboro, NC 27410",804-A Winview Drive,804-A Winview Drive,NC,27410,(336) 855-5091,ssiegel@bnai-shalom.org,www.bnai-shalom.org,Susan  Siegel,36.09503194,-79.8571781
Bonner Academy,6216 Hunter Street,Raleigh,NC,27612,"6216 Hunter Street Raleigh, NC 27612",6216 Hunter Street,Raleigh,NC,27612,(919) 291-8446,bonneracademy@yahoo.com,www.bonneracademy.com,Mrs. Linda  Bonner,35.87039711,-78.68171091
Born Again Christian Academy,1204 Highway 210,Sneads Ferry,NC,28460,"1204 Highway 210 Sneads Ferry, NC 28460",1204 Highway 210,Sneads Ferry,NC,28445,(910) 333-5213,bornagainchristianacademy@gmail.com,NA,Rev. Jeffrey  Summers,34.53049416,-77.43453711
Bridge of Hope Christian School,100 Anthony Grove Rd,Crouse,NC,28033,"100 Anthony Grove Rd Crouse, NC 28033",100 Anthony Grove Rd,Crouse,NC,28033,(704) 435-6001,pastor@anthonygrove.com,www.bridgeofhopeschool.org,Dennis Edward Bean,35.3995526,-81.3321137
BridgeWay Prep Christian,242 Caratoke Hwy,Moyock,NC,27958,"242 Caratoke Hwy Moyock, NC 27958",NA,NA,NA,NA,(252) 270-5278,info.bwprep@gmail.com,www.bwpcskids.org,Lynnetta  Seabury,36.55025039,-76.19270192
Bright Kids STEAM Academy,13925 Erwin RD,Charlotte,NC,28273,"13925 Erwin RD Charlotte, NC 28273",NA,NA,NA,NA,(980) 299-0600,walterbowersjr@gmail.com,NA,Walter  Bower,35.11646435,-80.97703513
Bright Spot Baptist Academy,200 Tomberlin Street,Monroe,NC,28112,"200 Tomberlin Street Monroe, NC 28112",NA,NA,NC,NA,(704) 635-8111,brightspotbaptistacademymonroenc@yahoo.com,NA,Dennis Howard Baker,34.97970059,-80.51987028
Brighter Days Academy Goldsboro,481 Lee Lane Rd,Roanoke Rapids,NC,27870,"481 Lee Lane Rd Roanoke Rapids, NC 27870",503 N. William St,Goldsboro,NC,27530,(919) 330-4715,BDAcademy2023@gmail.com,NA,Aronia  Lane,36.46067808,-77.64070569
Brighter Days Academy Inc.,481 Lee Lane Rd.,Roanoke Rapids,NC,27870,"481 Lee Lane Rd. Roanoke Rapids, NC 27870",91 Food Lion Rd,Scotland Neck,NC,27874,(252) 678-4648,brighterdaysacademy1@gmail.com,NA,Aaron J Leach,36.46067808,-77.64070569
British International Sch. of Charlotte,7000 Endhaven Lane,Charlotte,NC,28277,"7000 Endhaven Lane Charlotte, NC 28277",7000 Endhaven Lane,Charlotte,NC,28277,(704) 341-3236,administration@bischarlotte.org,www.bischarlotte.org,Mr. Adam  Stevens,35.06786469,-80.83667063
Brittain Academy,155 Northpoint Avenue  Suite 206,High Point,NC,27262,"155 Northpoint Avenue  Suite 206 High Point, NC 27262",155 Northpoint Avenue  Suite 206,High Point,NC,27262,(336) 899-7114,info@brittainacademy.net,www.brittainacademy.net,Dr. Linde  Brittain,35.98797875,-80.02296713
Brookhaven SDA School,4658 Reedy Branch Road,Winterville,NC,28590,"4658 Reedy Branch Road Winterville, NC 28590",4658 Reedy Branch Road,Winterville,NC,28590,(252) 756-5777,mmeadows@carolinasda.org,www.brookhavenschool.us,Mindy  Meadows,35.53862046,-77.41462023
Brookside Christian Academy,2004 US 301 N.,Dunn,NC,28334,"2004 US 301 N. Dunn, NC 28334",2004 US 301 N.  804 W. Broad St. & 780 Hodges Chapel Rd.  Benson,Dunn,NC,28334,(919) 812-4202,bdean@brooksideca.org,www.brooksideca.org,Elizabeth C. Dean,35.28175984,-78.62679141
Bryan School,324 S. Elm Street Suite 300,Greensboro,NC,27408,"324 S. Elm Street Suite 300 Greensboro, NC 27408",204 N. Mendenhall Street,Greensboro,NC,27405,(336) 554-5251,rosumahb@gmail.com,NA,Ms. Rose  Boyce,36.06935783,-79.79059816
Buffalo Academy,803 16th Street,Greensboro,NC,27405,"803 16th Street Greensboro, NC 27405",803 16th Street,Greensboro,NC,27405,(336) 375-3380,hallfrank@aol.com,WWW.BuffaloAcademy.net,Frank  Hall,36.10888367,-79.78058898
Burbrella Microschool,309 HUFFMAN MILL RD Suite140 & Suite 130,BURLINGTON,NC,27215,"309 HUFFMAN MILL RD Suite140 & Suite 130 BURLINGTON, NC 27215",309 Huffman Mill Road  Suite 140 & Suite 130,Burlington,NC,27215,(336) 567-4015,dburgess@burbrellaeducation.com,www.burbrella.org,Dominique  Burgess,36.07633709,-79.48810025
Burlington Christian Academy,621 E. Sixth Street,Burlington,NC,27215,"621 E. Sixth Street Burlington, NC 27215",621 East Sixth Street,Burlington,NC,27215,(336) 227-0288,mmartin@bcaroyals.com,www.bcaroyals.com,Dr. Mary  Martin,36.08340192,-79.43996341
C3 Concord Christian School,265 Manor Avenue,Concord,NC,28025,"265 Manor Avenue Concord, NC 28025",265 Manor Avenue SW,Concord,NC,28025,(704) 788-4726,churchinfo@concordchristiancenter.com,www.concordchristiancenter.com,Dr. Cecil A. Brown,35.38347049,-80.56898072
Calvary Baptist Church School,1821 Rhem Avenue,New Bern,NC,28563,"1821 Rhem Avenue New Bern, NC 28563",1821 Rhem Avenue,New Bern,NC,28560,(252) 633-5410,s.willis@calbaptchurchschool.org,www.calbapt.org,Mr. Dwight  Williams,35.10528793,-77.06642549
Calvary Baptist Mission Academy,100 Cemetery Road,Pisgah Forest,NC,28768,"100 Cemetery Road Pisgah Forest, NC 28768",100 Cemetery Road,NA,NA,NA,(828) 884-3818,calvarybaptistmissionacademy@gmail.com,NA,Ms. Heather  Greene,35.26132222,-82.69622619
Calvary Chapel Academy,112 Moose Club Road,Statesville,NC,28677,"112 Moose Club Road Statesville, NC 28677",112 Moose Club Road,Statesville,NC,28677,(704) 380-4376,lobby@cclkn.org,Calvarychapelacademy.com,Pastor Mike  Burner,35.72767988,-80.89614931
Calvary Christian Academy,5801 Pineville-Matthews Road,Charlotte,NC,28226,"5801 Pineville-Matthews Road Charlotte, NC 28226",5801 Pineville-Matthews Rd,Charlotte,NC,28226,(704) 945-3121,ssauerwein@calvarychristianacademy.com,https://www.calvarychristianacademy.com/,Skye Seago Sauerwein,35.08687917,-80.8143383
Calvary Christian Academy,1412 Holbert Street,Greenville,NC,27834,"1412 Holbert Street Greenville, NC 27834",1412 Holbert St.,Greenville,NC,27834,(252) 752-4785,calvarycca@cleaninter.net,www.calvarychristianacademygreenville.com,Mr. Ronnie M. Rogerson,35.63524176,-77.37576484
Calvary Christian School,400 S. Bennett Street,Southern Pines,NC,28387,"400 S. Bennett Street Southern Pines, NC 28387",400 S. Bennett Street,Southern Pines,NC,28387,(910) 692-8311,lauraingram@calvary-christian.org,www.calvary-christian.org,Mr. Charles  Garrison,35.17310182,-79.39633512
Calvary Christian School,394 Ferrells Bridge Road,Louisburg,NC,27549,"394 Ferrells Bridge Road Louisburg, NC 27549",394 Ferrells Bridge Road,Louisburg,NC,27549,(919) 496-1177,calvarychristian@embarqmail.com,www.calvarybaptistoflouisburg.com,Mr. Mark  Tondee,35.98898174,-78.25225189
Calvary Christian School,423 North 23rd Street,Wilmington,NC,28405,"423 North 23rd Street Wilmington, NC 28405",423 North 23rd Street,WILMINGTON,NC,28405,(910) 343-1565,school@calvarybaptistwilmington.org,www.calvarychristianwilmington.com,Mr. Donnie  Lovette,34.24477573,-77.92013734
Calvary Christian School,536 S. Main St.,King,NC,27021,"536 S. Main St. King, NC 27021",536 S. Main St,King,NC,27021,(336) 983-3743,officeadmin@ccsking.org,ccsking.org,Mr. Bradley  Nagel,36.26860292,-80.36097643
Calvary Day School,134 South Peace Haven Road,Winston-Salem,NC,27104,"134 South Peace Haven Road Winston-Salem, NC 27104",134 South Peace Haven Rd.,Winston-Salem,NC,27104,(336) 765-5546,rhardee@calvaryday.school,www.calvaryday.school,Mr. Richard  Hardee,36.08078284,-80.35244499
Camelot Academy,809 West Proctor Street,Durham,NC,27707,"809 West Proctor Street Durham, NC 27707",809 West Proctor Street,Durham,NC,27707,(919) 688-3040,camelot@camelotacademy.org,www.camelotacademy.org,Thelma  DeCarlo-Glynn,35.99034631,-78.912069
Cannon School,5801 Poplar Tent Road,Concord,NC,28027,"5801 Poplar Tent Road Concord, NC 28027",5801 Poplar Tent Road,Concord,NC,28027,(704) 786-8171,shopes@cannonschool.org,www.cannonschool.org,Mr. Matthew  Gossage,35.40841316,-80.67361905
Canongate Catholic High School,109 Crescent Hill Rd.,Arden,NC,28704,"109 Crescent Hill Rd. Arden, NC 28704",109 Crescent Hill Rd.,Arden,NC,28704,(828) 712-8924,eallen@canongatecatholic.org,www.canongatecatholic.org,Mr. Erick  Allen,35.45096173,-82.51258102
Canterbury School,5400 Old Lake Jeanette Road,Greensboro,NC,27455,"5400 Old Lake Jeanette Road Greensboro, NC 27455",5400 Old Lake Jeanette Road,Greensboro,NC,27455,(336) 288-2007,stuarth@canterburygso.org,www.canterburygso.org,Harrison  Stuart,36.14339684,-79.79335776
Canyon Hills Treatment Facility Academy,769 Aberdeen Road,Raeford,NC,28376,"769 Aberdeen Road Raeford, NC 28376",769 Aberdeen Road,Raeford,NC,28376,(910) 878-1502,chtfeducation@canyonhillstreatmentfacility.co,canyonhillstreatmentfacility.com,Ms. Stephanie  McFayden,34.98946838,-79.2564391
Cape Fear Academy,3900 S. College Road,Wilmington,NC,28412,"3900 S. College Road Wilmington, NC 28412",3900 S College Road,Wilmington,NC,28412,(910) 791-0287,ed.ellison@capefearacademy.org,www.capefearacademy.org,Edward  Ellison,34.17012098,-77.89156832
Cape Fear Christian Academy,138 Erwin Chapel Road,Erwin,NC,28339,"138 Erwin Chapel Road Erwin, NC 28339",138 Erwin Chapel Road,Erwin,NC,28339,(910) 897-5423,apope@cfcaeagles.com,www.capefearchristianacademy.org,Johnna  Skatell,35.35867652,-78.69732402
Captain Gilmer Christian School,257 Doelger Drive,Fletcher,NC,28732,"257 Doelger Drive Fletcher, NC 28732",257 Doelger Drive,Fletcher,NC,28732,(828) 684-8221,swilson@fletcheracademy.org,www.captaingilmer.org,Ms. Sarah  Wilson,35.39730393,-82.48961614
Cardinal Gibbons High School,1401 Edwards Mill Road,Raleigh,NC,27607,"1401 Edwards Mill Road Raleigh, NC 27607",1401 Edwards Mill Rd,Raleigh,NC,27607,(919) 834-1625,JenniferHammersley@cghsnc.org,www.cghsnc.org,Mr. Jeff  Bell,35.80266574,-78.72679445
Carmel Christian School,1145 Pineville-Matthews Road,Matthews,NC,28105,"1145 Pineville-Matthews Road Matthews, NC 28105",1145 Pineville-Matthews Road,Matthews,NC,28105,(704) 849-9723,scottd@carmelchristian.org,www.carmelchristian.org,Dr. Jay  Hancock,35.11391464,-80.75468239
Carolina Adventist Academy,3710 James B. White Highway S.,Whiteville,NC,28472,"3710 James B. White Highway S. Whiteville, NC 28472",3710 James B. White Highway S.,Whiteville,NC,28472,(910) 640-0855,principalcooper@edcaa.net,whitevillenc.adventistschoolconnect.org,Mrs. Khandi  Cooper,34.29258785,-78.73184248
Carolina Baptist Academy,116 S. Franklin St.,Reidsville,NC,27320,"116 S. Franklin St. Reidsville, NC 27320",116 South Franklin Street  Reidsville 27320,Reidsville,NC,27323,(336) 634-1345,coachxtreme21@yahoo.com,NA,Aaron  Shelton,36.3610812,-79.66951154
Carolina Christian Academy,367 Academy Drive,Thomasville,NC,27360,"367 Academy Drive Thomasville, NC 27360",367 Academy Drive,Thomasville,NC,27360,(336) 472-8950,administrator@cca-nc.com,www.cca-nc.com,Christina  Black,35.81768949,-80.12056707
Carolina Christian Academy,259 Tusquittee St.,Hayesville  NC 28904,NC,28904,"259 Tusquittee St. Hayesville  NC 28904, NC 28904",259 Tusquittee St.  Hayesville,Hayesville,NC,28904,(828) 389-4777,d.intemann@ccachargers.com,www.carolinachristianchargers.com,Mrs. Crystal  Rumfelt,35.05070558,-83.81826004
Carolina Christian Academy,712 Wellington Ave,Wilmington,NC,28401,"712 Wellington Ave Wilmington, NC 28401",712 Wellington Ave,Wilmington,NC,28401,(910) 763-3762,ashley@ccailm.com,carolinachristian.academy.com,Bethany  Siddons,34.19485575,-77.93273952
Carolina Christian Bible College,319 S. Oak St,Statesville,NC,28677,"319 S. Oak St Statesville, NC 28677",NA,NA,NA,NA,(704) 498-7615,ccbcollege2007@gmail.com,NA,Dr. Charles  Rice,35.77933981,-80.89701546
Carolina Christian School,406 Renee Ford Road,Locust,NC,28097,"406 Renee Ford Road Locust, NC 28097",406 Renee Ford Road,Locust,NC,28097,(704) 888-4332,agrey@carolinachristianschool.com,www.carolinachristianschool.com,Alexander  Grey,35.25408046,-80.4379222
Carolina Day School,1345 Hendersonville Rd,Asheville,NC,28803,"1345 Hendersonville Rd Asheville, NC 28803",1345 Hendersonville Rd,Asheville,NC,28803,(828) 274-0757,headofschool@carolinaday.org,www.carolinaday.org,Mr. Stephanie  Whitney,35.52176829,-82.52935812
Carolina Dunes Academy,2050 Mercantile Dr.,Leland,NC,28451,"2050 Mercantile Dr. Leland, NC 28451",NA,NA,NA,NA,(910) 371-2500,david.harmon@carolinadunesbh.com,NA,Mr. David  Harmon,34.26148539,-78.06458366
Carolina Friends School,4809 Friends School Road,Durham,NC,27707,"4809 Friends School Road Durham, NC 27707",4809 Friends School Road.,Durham,NC,27705,(919) 383-6602,kcumberbatch@cfsnc.org,www.cfsnc.org,Ms. Karen  Cumberbatch,36.00993104,-79.02231536
Carr Preparatory Academy,7110 Fayetteville Rd,Raeford,NC,28376,"7110 Fayetteville Rd Raeford, NC 28376",7110 Fayetteville Rd,Raeford,NC,28376,(910) 479-1167,patricecarrcarrprep@gmail.com,carrprep.com,Patrice Kasia Carr,35.02709325,-79.14196355
Cary Academy,1500 N. Harrison Avenue,Cary,NC,27513,"1500 N. Harrison Avenue Cary, NC 27513",1500 N. Harrison Ave.,Cary,NC,27513,(919) 228-4500,mike_ehrhardt@caryacademy.org,www.caryacademy.org,Dr. Michael  Ehrhardt,35.81931328,-78.7714117
Cathedral School,204 Hillsborough Street,Raleigh,NC,27603,"204 Hillsborough Street Raleigh, NC 27603",204 Hillsborough Street,Raleigh,NC,27603,(919) 832-4711,lane@cathedral-school.net,www.cathedral-school.net,Dr. Danielle  Gucwa,35.7805348,-78.64183889
Cedar Fork Mennonite School,1362 Fountaintown Road,Beulaville,NC,28518,"1362 Fountaintown Road Beulaville, NC 28518",1353 Cedar Fork Road,NA,NA,28451,(910) 340-0878,sbmartin@lgbg.org,NA,Mr. Simon D. Martin,34.857546,-77.68221169
Central Christian Academy,1810 Moose Rd.,Kannapolis,NC,28083,"1810 Moose Rd. Kannapolis, NC 28083",1810 Moose Rd,Kannapolis,NC,28083,(704) 934-2050,cca@cbckannapolis.com,https://cbckannapolis.com/cca,Angela  Guiton,35.50871584,-80.59524184
Central Christian Academy,11109 Poole Road,Wendell,NC,27591,"11109 Poole Road Wendell, NC 27591",11109 Poole Road,Wendell,NC,27591,(919) 365-7714,erose@centralwendell.org,ccawendell.org,Evette Little Orcutt,35.76649403,-78.40955173
Chabad Torah Academy,4109 Grace Park Drive,Morrisville,NC,27560,"4109 Grace Park Drive Morrisville, NC 27560",4109 Grace Park Drive,Morrisville,NC,27560,(919) 651-9710,info@chedernc.com,https://chabadofcary.org/TorahAcademy,Yosef  Plotkin,35.82111857,-78.84688506
Challenge Christian Academy,322 Floyd Berrier Dr,Kernersville,NC,27284,"322 Floyd Berrier Dr Kernersville, NC 27284",322 Floyd Berrier Dr,Kernersville,NC,27284,(336) 207-6943,ccaonlineacademy@gmail.com,NA,Imilsy  Rodriguez,36.11930904,-80.05173452
Champion Christian Academy,703 Margrace Road,Kings Mountain,NC,28086,"703 Margrace Road Kings Mountain, NC 28086",703 Margrace Rd,Kings Mountain,NC,28086,(704) 739-6711,mikericembc@yahoo.com,NA,Michael Blair Rice,35.2120799,-81.38356084
Charlotte Catholic High School,7702 Pineville-Matthews Road,Charlotte,NC,28226,"7702 Pineville-Matthews Road Charlotte, NC 28226",7702 Pineville-Matthews Road,Charlotte,NC,28226,(704) 543-1127,swhogg@charlottecatholic.com,www.charlottecatholic.org,Mr. W. Kurt Telford,35.08774388,-80.85056141
Charlotte Christian School,7301 Sardis Road,Charlotte,NC,28270,"7301 Sardis Road Charlotte, NC 28270",7301 Sardis Road,Charlotte,NC,28270,(704) 366-5657,barry.giller@charchrist.com,www.charlottechristian.com,Mr. Barry  Giller,35.14080329,-80.77060193
Charlotte Country Day School,1440 Carmel Road,Charlotte,NC,28226,"1440 Carmel Road Charlotte, NC 28226",1440 Carmel Rd.,Charlotte,NC,28226,(704) 943-4500,headsoffice@charlottecountryday.org,www.charlottecountryday.org,Mr. Marcel  Gauthier,35.1480357,-80.80195025
Charlotte Islamic Academy,5500 North Tryon St.,Charlotte,NC,28213,"5500 North Tryon St. Charlotte, NC 28213",NA,NA,NA,NA,(704) 900-0255,principal@ciacademy.us,www.ciacademy.us,Mr. Alla  Alshaikh,35.26128861,-80.77453404
Charlotte Latin School,9502 Providence Road,Charlotte,NC,28277,"9502 Providence Road Charlotte, NC 28277",9502 Providence Rd,Charlotte,NC,29277,(704) 846-1100,michelle.godfrey@charlottelatin.org,www.charlottelatin.org,Mr. Chuck  Baldecchi,35.0804386,-80.77232603
Charlotte Leadership Academy,2723 N. Graham Street,Charlotte,NC,28206,"2723 N. Graham Street Charlotte, NC 28206",2723 N. Graham Street,Charlotte,NC,28206,(704) 931-1196,charlotteleadership@gmail.com,www.gocla.org,Ms. Doan Clark  Ryan Saunders,35.25536243,-80.8240689
Charlotte Leadership Academy Shooting Stars,8400 Redstone View Drive,Charlotte,NC,28269,"8400 Redstone View Drive Charlotte, NC 28269",1337 Samuel Street,Charlotte,NC,28206,(980) 322-9377,CLAshootingstars@outlook.com,www.Clashootingstars.com,Shelby  Talton,35.35769654,-80.79754389
Charlotte Preparatory School,212 Boyce Road,Charlotte,NC,28211,"212 Boyce Road Charlotte, NC 28211",212 Boyce Road,Charlotte,NC,28211,(704) 366-5994,lgoldstein@charlotteprep.org,www.charlotteprep.org,Chris  Marblo,35.14766584,-80.77018883
Chesterbrook Acad. of Cary,130 Towne Village Drive,Cary,NC,27513,"130 Towne Village Drive Cary, NC 27513",130 Towne Village Drive,Cary,NC,27513,(919) 319-9622,Lydia.Soto@chesterbrookacademy.com,www.cary.chesterbrookacademy.com,Lydia  Soto,35.78289773,-78.83770657
Chesterbrook Acad. of Raleigh,10200 Strickland Road,Raleigh,NC,27615,"10200 Strickland Road Raleigh, NC 27615",10200 Strickland Road,Raleigh,NC,27615,(919) 847-3120,Erika.Moore@chesterbrookacademy.com,www.northraleigh.chesterbrookacademy.com,Erika  Moore,35.90238411,-78.66529589
Children's Discovery Center,5511 Avent Ferry Rd.,Raleigh,NC,27606,"5511 Avent Ferry Rd. Raleigh, NC 27606",5511 Avent Ferry Rd.,Raleigh,NC,27606,(919) 851-0630,justincaspar@hotmail.com,www.casparpark.com,Mr. Justin  Caspar,35.75565994,-78.71719317
Children's Schoolhouse,612 South College Road,Wilmington,NC,28403,"612 South College Road Wilmington, NC 28403",612 South College Road,612 South College Ro,NC,28403,(910) 799-1531,lhieronymus@aol.com,www.childrensschoolhouse.org,Mrs. Lucy  Hieronymus,34.22911934,-77.87820263
Chosen Generation Christ. Acad,4114 Crepe Myrtle Street,Morehead City,NC,28557,"4114 Crepe Myrtle Street Morehead City, NC 28557",5601 HWY,Morehead City,NC,28557,(252) 342-4499,bellamy73@twc.com,NA,Mrs. Louise  Bell,34.72574262,-76.77056628
Chowan Multi-Purpose Juvenile Sch,110 Substation Road,Edenton,NC,27932,"110 Substation Road Edenton, NC 27932",110 Substation Road,Edenton,NC,27932,(252) 482-0329,ChowanPM@MHFC.org,www.mhfr.org,Mrs. Nicole  Walker,36.09424697,-76.57376684
Christ Classical Academy,170 Honeycutt Dr.,Connelly Springs,NC,28612,"170 Honeycutt Dr. Connelly Springs, NC 28612",170 Honeycutt Dr.,Connelly Springs,NC,28612,(828) 719-4463,christclassicalacademy@gmail.com,https://www.cca4god.org,Mrs. Robin  Cannon,35.75352115,-81.52581333
Christ Classical Academy of Charlotte,10132- A Harrisburg Rd.,Charlotte,NC,28215,"10132- A Harrisburg Rd. Charlotte, NC 28215",10132 Harrisburg Rd.,Charlotte,NC,28215,(704) 549-4101,jballard@bccaschool.org,www.bccaschool.org,Mrs. Janet K. Ballard,35.24429616,-80.66107058
Christ Covenant School,746 Worthington Road,Winterville,NC,28590,"746 Worthington Road Winterville, NC 28590",746 Worthington Road,Winterville,NC,28590,(252) 756-3002,kcook@christcs.org,www.christcs.org,Mr. Josh  Cornett,35.52446353,-77.37860777
Christ School,500 Christ School Road,Arden,NC,28704,"500 Christ School Road Arden, NC 28704",500 Christ School Road,Arden,NC,28704,(828) 684-6232,sjenkins@christschool.org,www.christschool.org,Mr. Sean  Jenkins,35.46640028,-82.4899215
Christ the Cornerstone Academy,10401 McColl Road,Laurinburg,NC,28352,"10401 McColl Road Laurinburg, NC 28352",10401 McColl Road,Laurinburg,NC,28352,(910) 501-8090,ebaines.eb@gmail.com,www.christthecornerstone.org,Emily  Baines,34.72567417,-79.50674706
Christ the King Catholic High School,2011 Crusader Way,Huntersville,NC,28078,"2011 Crusader Way Huntersville, NC 28078",2011 Crusader Way,Huntersville,NC,28078,(704) 799-4400,CASemmler@ctkchs.org,www.ctkchs.org,Dr. Carl A. Semmler,35.44179956,-80.75966722
Christian Family Academy,4643 County Home Road,CONOVER,NC,28613,"4643 County Home Road CONOVER, NC 28613",1409 NC-16,Conover,NC,28613,(828) 468-5974,office@christianfamilyacademy.org,www.christianfamilyacademy.com,Mr. Larry C. Johnson,35.75628725,-81.24885684
Christian Life Academy,3209 Gresham Lake Rd. Ste. 136,Raleigh,NC,27615,"3209 Gresham Lake Rd. Ste. 136 Raleigh, NC 27615",3209 Gresham Lake Rd. Ste. 136,Raleigh,NC,27615,(919) 877-5770,tmasinde@cla-raleigh.com,www.cla-Raleigh.com,Mrs. Tiwanda  Masinde,35.8848433,-78.58234432
Christian Montessori School,14101 Stumptown Road,Huntersville,NC,28078,"14101 Stumptown Road Huntersville, NC 28078",14101 Stumptown Road,Huntersville,NC,28078,(704) 875-1801,admin@christianmontessorischool.org,www.christianmontessorischool.org,Nancy  Radkiewicz,35.42339908,-80.85589866
Clubhouse Academy,745 Cinema Court  Suite G,Kernersville,NC,27284,"745 Cinema Court  Suite G Kernersville, NC 27284",745 Cinema Court  Suite G,Kernersville,NC,27284,(336) 992-0881,clubhouseacademync@gmail.com,www.clubhouseacademy.net,Jill R Eversole,36.13008289,-80.06424153
Coast to Mountains Preparatory Academy,333 Chrismill Lane,Holly Springs,NC,27540,"333 Chrismill Lane Holly Springs, NC 27540",2080 E. Williams Street,HOLLY SPRINGS,NC,27540,(919) 802-0832,bfriend@ctmprep.com,https://cmprep.k12.com/,Bruce Brian Friend,35.66218048,-78.82453962
Coastline Christian Academy,104 Drummer Kellum Rd.,Jacksonville,NC,28546,"104 Drummer Kellum Rd. Jacksonville, NC 28546",2734 Commerce Rd.,NA,NA,NA,(910) 467-4758,Coastlinechristianacademy@gmail.com,NA,Mr. Christopher  Robbins,34.79226918,-77.37284348
Combine Academy,270 Car Farm Road,Lincolnton,NC,28092,"270 Car Farm Road Lincolnton, NC 28092",270 Car Farm Road,Lincolnton,NC,28092,(404) 401-4049,Mat@combineacademy.com,www.combineacademy.com,Mat  Williamson,35.52657526,-81.21676891
Commission Leadership Academy,249 Holden Road,Youngsville,NC,27596,"249 Holden Road Youngsville, NC 27596",249 Holden Rd,Youngsville,NC,27596,(984) 235-4243,admin@commissionleadershipacademy.com,www.commissionleadershipacademy.com,Ms. Jennifer  Peters,36.0231322,-78.48845552
Community Baptist School,509 Triangle Road,Reidsville,NC,27320,"509 Triangle Road Reidsville, NC 27320",509 Triangle Road,Reidsville,NC,27320,(336) 342-5991,scommunitybapti@triad.rr.com,www.communitybaptistschools.net,Dr. Sharon  Wilbur,36.31836295,-79.67385437
Community Christian Academy,616 Athenia Place,Bessemer City,NC,28016,"616 Athenia Place Bessemer City, NC 28016",616 Athenia Place,Bessemer City,NC,28016,(704) 629-2391,pastordavidross@gmail.com,NA,Ms. David  Ross,35.27933054,-81.27142902
Community Christian School,5160 Packhouse Road N.W.,Wilson,NC,27896,"5160 Packhouse Road N.W. Wilson, NC 27896",5160 Packhouse Road N.W.,Wilson,NC,27896,(252) 399-1376,lesleypierce@ccscyclones.com,www.ccscyclones.com,Dr. Steve  Wall,35.78169497,-77.97384741
Compulit,943 W Sugar Creek Road,Charlotte,NC,28213,"943 W Sugar Creek Road Charlotte, NC 28213",Sugar Creek Recreation Center  943 W Sugar Creek Road,Charlotte,NC,28213,(704) 258-2053,compulit721@gmail.com,NA,Stephanie  Walker,35.27306558,-80.79372161
Concord Academy,154 Warren C. Coleman Blvd. N,Concord,NC,28027,"154 Warren C. Coleman Blvd. N Concord, NC 28027",154 Warren C. Coleman Blvd. & 638 Lyric Ave.,Concord,NC,28027,(704) 793-4750,frank@concord.academy,www.concord.academy,Mr. Frank  Cantadore,35.39774108,-80.60730023
Concordia Christian Day Sch.,215 5th Avenue SE,Conover,NC,28613,"215 5th Avenue SE Conover, NC 28613",215 5th Avenue SE,Conover,NC,28613,(828) 464-3011,ccds@concordianc.org,www.concordianc.org,David  Beringer,35.70319382,-81.21610661
Cornerstone Adventist Academy,11431 University City Boulevard,Charlotte,NC,28213,"11431 University City Boulevard Charlotte, NC 28213",11431 University City Boulevard,Charlotte,NC,28213,(704) 549-8007,seberhart@carolinasda.org,https://www.cornerstoneadventistacademy.org/,Sonja  Eberhart,35.31524484,-80.69275253
Cornerstone Christian Academy,3000 Scotty Hill Road,Fayetteville,NC,28303,"3000 Scotty Hill Road Fayetteville, NC 28303",3000 Scotty Hill Road,Fayetteville,NC,28303,(910) 867-1166,principal@ccafay.org,www.ccafay.org,Mr. Joseph  Ollis,35.08172379,-78.92647653
Cornerstone Christian Academy,650 Glover Street,Statesville,NC,28625,"650 Glover Street Statesville, NC 28625",650 Glover Street,statesville,NC,28625,(704) 873-0032,reneegriffith@hotmail.com,www.welovecornerstone.com,Mrs. Renee  Griffith,35.78188626,-80.8553267
Cornerstone Christian Academy,231 Third Avenue NE,Hickory,NC,28601,"231 Third Avenue NE Hickory, NC 28601",231 Third Avenue NE,Hickory,NC,28601,(828) 781-2227,cca.hickory@gmail.com,www.cornerstonecounselingnc.org,Deborah  Hedrick,35.73558551,-81.33478964
COSM Academy,147 Sawyer Cove Rd,Hayesville,NC,28904,"147 Sawyer Cove Rd Hayesville, NC 28904",NA,NA,NC,NA,(818) 383-4213,hello@cosm.academy,NA,Emilee  Saldaya,35.06306744,-83.80090657
Covenant Christian Academy,6003 Brightleaf Road,Goldsboro,NC,27530,"6003 Brightleaf Road Goldsboro, NC 27530",300 S Madison Avenue,Goldsboro,NC,27530,(919) 252-3252,ccawaynecounty@gmail.com,NA,Alyssa  Harris,35.33968435,-78.0612574
Covenant Christian Academy,2706 Secrest Short Cut Rd.,Monroe,NC,28110,"2706 Secrest Short Cut Rd. Monroe, NC 28110",2706 Secrest Short Cut Rd.,Monroe,NC,28110,(704) 774-1062,ccamonroe@yahoo.com,http://covenant-christian-academy.covenantbcmonroe,Amanda  Funderburk,35.01567284,-80.55742445
Covenant Classical Academy,105 Margaret Drive,Elizabeth City,NC,27909,"105 Margaret Drive Elizabeth City, NC 27909",801 Riverside Ave,Elizabeth City,NC,27909,(276) 525-0724,covenantacademyec@gmail.com,https://www.covenantclassicalacademy.com,Caasi  Suaava,36.22207004,-76.12274408
Covenant Classical School,3200 Patrick Henry Drive,Concord,NC,28027,"3200 Patrick Henry Drive Concord, NC 28027",3200 Patrick Henry Drive,Concord,NC,28027,(704) 792-1854,drussell@covenantclassical.org,www.covenantclassical.org,Dawn  Russell,35.43454826,-80.63383139
Covenant Day School,800 Fullwood Lane,Matthews,NC,28105,"800 Fullwood Lane Matthews, NC 28105",800 Fullwood Lane,Matthews,NC,28105,(704) 847-2385,jharding@covenantday.org,www.covenantday.org,Mark  Helmer,35.11597828,-80.73235277
Covenant Preparatory School,650 Pee Dee Road,Southern Pines,NC,28387,"650 Pee Dee Road Southern Pines, NC 28387",650 Pee Dee Road,Southern Pines,NC,28327,(910) 709-9149,covenantprepadmissions@gmail.com,www.covenantprepnc.com,Brittany  Portnoy,35.2066247,-79.39260565
CPath Academy,310 Kerr St NE,Concord,NC,28025,"310 Kerr St NE Concord, NC 28025",310 Kerr St NE,Concord,NC,28025,(210) 251-6880,childpathorgan@gmail.com,NA,Ivel  Turkson,35.41324815,-80.59691838
Cramerton Christian Academy,426 Woodlawn Extension,Cramerton,NC,28032,"426 Woodlawn Extension Cramerton, NC 28032",426 Woodlawn Ext.,Cramerton,NC,28032,(704) 824-2840,info@cramertonchristian.org,www.cramertonchristian.org,Donna L. Bowman,35.24659365,-81.08478775
Creation Acre Academy,9336 Surface Hill Road,Mint Hill,NC,28227,"9336 Surface Hill Road Mint Hill, NC 28227",11120 Lawyers Road,Mint Hill,NC,28227,(704) 412-8911,jasmine@creationacre.com,NA,Jasmine Nicole Williams,35.19980211,-80.64908434
Creative Christian Academy,4823 Old Charlotte Way,Monroe,NC,28110,"4823 Old Charlotte Way Monroe, NC 28110",4823 Old Charlotte Way,Monroe,NC,28110,(704) 635-7829,msliz@creativecarenc.org,www.creativecarenc.org,Elizabeth  Meyreles,35.04119231,-80.63505288
Cresset Christian Academy,3707 Garrett Road,Durham,NC,27707,"3707 Garrett Road Durham, NC 27707",3707 Garrett Road,Durham,NC,27707,(919) 489-2655,rtaylor@cressetchristian.org,www.cressetchristian.org,Mr. Randy  Taylor,35.97224344,-78.97651244
Cristo Rey Research Triangle,334 Blackwell Street  Suite 100,Durham,NC,27701,"334 Blackwell Street  Suite 100 Durham, NC 27701",334 Blackwell Street  Suite 100,Durham,NC,27701,(570) 814-4483,neil.cronin@cristoreyrt.org,https://www.cristoreyrt.org/home,Neil Andrew Cronin,35.99416412,-78.90337322
Crossway Academy,9111 Monroe Rd  Ste 100,Charlotte,NC,28270,"9111 Monroe Rd  Ste 100 Charlotte, NC 28270",9111 Monroe Rd  Ste 100,Charlotte,NC,28270,(704) 847-3911,shelley@crosswaytherapy.com,www.crosswayacademy.com,Ms. Shelley  Dean,35.1467666,-80.74426718
Cumberland Co. Christian Sch.,2587 Hope Mills Rd,Fayetteville,NC,28306,"2587 Hope Mills Rd Fayetteville, NC 28306",2587 Hope Mills Road & 803 Stamper Road  Fayetteville  NC,Fayetteville,NC,28304,(910) 491-3542,cumberlandccs@aol.com,cumberlandccs.com,Dr. Jessica  Respus,35.00110833,-78.96725866
Cyzner Institute,7022 Sardis Road,Charlotte,NC,28270,"7022 Sardis Road Charlotte, NC 28270",7022 Sardis Road,Charlotte,NC,28270,(704) 366-8260,lcyzner@cyznerinstitute.com,www.cyznerinstitute.com,Dr. Lisa  Cyzner,35.14556917,-80.77206212
Daniyel and Children's Learning Center,103 Wood Green Drive,Wendell,NC,27591,"103 Wood Green Drive Wendell, NC 27591",103 Wood Green Drive,Wendell,NC,27591,(919) 591-1634,Daniyelandchildren@gmail.com,www.daniyelandchildren.org,Kwame  Lewis,35.79020854,-78.3575722
Davidson Center for Learning,452 S. Main Street  Suite 110,Davidson,NC,28036,"452 S. Main Street  Suite 110 Davidson, NC 28036",452 S. Main Street  Suite 110,Davidson,NC,28036,(704) 892-4533,agranelle@davidsoncenter.com,davidsoncenter.com,Mary Jane  Freeman,35.49514602,-80.85329152
Davidson Day School,750 Jetton Street,Davidson,NC,28036,"750 Jetton Street Davidson, NC 28036",750 Jetton Street,Davidon,NC,28036,(704) 237-5200,rlennox@davidsonday.org,www.davidsonday.org,Rachel  Lennox,35.50329555,-80.86128925
Davidson Green School,511 South Main Street,Davidson,NC,28036,"511 South Main Street Davidson, NC 28036",511 South Main Street,Davidson,NC,28036,(540) 273-1000,jennifer@davidsongreenschool.org,www.davidsongreenschool.org,Ms. Jennifer  Jakubecy,35.49294576,-80.85495262
Dayspring Christian Academy,1552 Hwy 24/27 Bypass West,Albemarle,NC,28001,"1552 Hwy 24/27 Bypass West Albemarle, NC 28001",NA,NA,NC,NA,(704) 269-8276,onamission316@gmail.com,NA,Jamie Lee Hunsucker,35.3344291,-80.22654327
Deep Creek Christian Academy,823 Wildwood St,Wadesboro,NC,28170,"823 Wildwood St Wadesboro, NC 28170",1280 Beck Road,Wadesboro,NC,28170,(704) 694-3851,debjarman@twc.com,https://www.thecreekacademy.org,Debbie B Jarman,34.95389002,-80.06851684
Destiny Now Academy,6974 Raeford Road,Fayetteville,NC,28304,"6974 Raeford Road Fayetteville, NC 28304",6974 Raeford Road,Fayetteville,NC,28304,(910) 494-6566,Kthompson@dnacademy.org,www.dnacademy.org,Kesha  Thompson,35.03614312,-79.01467023
Discovery Child Development Center,11000 Lake Grove Boulevard,Morrisville,NC,27560,"11000 Lake Grove Boulevard Morrisville, NC 27560",11000 Lake Grove Boulevard,Morrisville,NC,27560,(919) 234-0735,discoverycdcenter@gmail.com,www.discoverychilddevelopmentcenter.com,Michael  Dlott,35.82273222,-78.84625999
Divine Christian Academy,6627 North Carolina Hwy 72,Pembroke,NC,28372,"6627 North Carolina Hwy 72 Pembroke, NC 28372",NA,NA,NC,NA,(910) 775-9443,divineca8@gmail.com,NA,Mariah Lea Locklear,34.68297264,-79.1359978
Dominion Christian Academy,8332 Fayetteville Road,Raeford,NC,28376,"8332 Fayetteville Road Raeford, NC 28376",8332 Fayetteville Road,Raeford,NC,28376,(910) 565-2004,DCARaeford@gmail.com,www.dcaraeford.com,Fallon  Procter,35.03156433,-79.11850426
Drexel School,6414 W. Wilkinson Boulevard,Belmont,NC,28012,"6414 W. Wilkinson Boulevard Belmont, NC 28012",304 McAdenville Road,Belmont,NC,28012,(704) 709-1097,jennyryan@drexelhigh.org,NA,Jennifer  Gareis,35.25185908,-81.04678356
Duke School,3716 Erwin Road,Durham,NC,27705,"3716 Erwin Road Durham, NC 27705",3716 Erwin Road,Durham,NC,27705,(919) 287-2192,foley.dyson@dukeschool.org,www.dukeschool.org,Lisa  Nagel,35.9990595,-78.96582977
Durham Academy,3601 Ridge Road,Durham,NC,27705,"3601 Ridge Road Durham, NC 27705",3601 Ridge Road,Chapel Hill,NC,27517,(919) 287-1721,meghan.fulton@da.org,www.da.org,Mr. Michael  Ulku-Steiner,35.97744863,-78.97000187
Eagles Refuge Academy,109 Eagles Refuge Drive,Statesville,NC,28625,"109 Eagles Refuge Drive Statesville, NC 28625",109 Eagles Refuge Drive,Statesville,NC,28625,(704) 450-9009,eaglesrefugeacademy@gmail.com,NA,Mr. Shelby C. Bullard,35.87475645,-80.96256732
Eliada Academy,2 Compton Drive,Asheville,NC,28806,"2 Compton Drive Asheville, NC 28806",2 Compton Drive,Asheville,NC,28806,(828) 254-5356,zeden@eliada.org,www.eliada.org,Mr. Zachary  Eden,35.59447376,-82.61782994
Elizabethtown Christian Academy,1800 West Broad St.,Elizabethtown,NC,28337,"1800 West Broad St. Elizabethtown, NC 28337",1800 West Broad Street,Elizabethtown,NC,28337,(910) 862-3427,bbridgers@etownecem.org,elizabethtownca.org,Beverly  Bridgers,34.61654487,-78.58723643
Emerald School of Excellence,4012 Central Avenue,Charlotte,NC,28205,"4012 Central Avenue Charlotte, NC 28205",4012 Central Avenue,Charlotte,NC,28205,(347) 698-3081,maryf@emeraldschool.org,www.emeraldschool.org,Mary  Ferreri,35.21526918,-80.77736409
Emerson Waldorf School,6211 New Jericho Road,Chapel Hill,NC,27516,"6211 New Jericho Road Chapel Hill, NC 27516",6211 New Jericho Road,Chapel Hill,NC,27516,(919) 967-1858,ceverhart@emersonwaldorf.org,www.emersonwaldorf.org,Colleen  Everhart,35.98768031,-79.07731658
Emmanuel Lutheran School,51 Wilburn Place,Asheville,NC,28806,"51 Wilburn Place Asheville, NC 28806",51 Wilburn Pl,Asheville,NC,28806,(828) 281-8182,principal@elcsmail.org,www.emmanuellutheranschool.org,Ms. Mark  Edmiston,35.58524508,-82.60305113
Empowered Minds Academy,311 Oakwood Ave,Durham,NC,27701,"311 Oakwood Ave Durham, NC 27701",311 Oakwood Ave,Durham,NC,27701,(919) 949-0147,valine@empoweredmindsacademy.org,www.empoweredmindsacademy.org,Valine  Zeigler,35.99464759,-78.89366329
Enlighten Legacy Learning,301 McCullough St Ste 400,Charlotte,NC,28262,"301 McCullough St Ste 400 Charlotte, NC 28262",2017 Bentley Place,Charlotte,NC,28205,(980) 335-1815,ADMIN@ELEGACYLEARNINGCENTERS.COM,elegacylearningcenters.com,Yacara  Mungo,35.30145656,-80.75639855
Ephesus Junior Academy,1225 North Cleveland Avenue,Winston-Salem,NC,27101,"1225 North Cleveland Avenue Winston-Salem, NC 27101",1225 North Cleveland Avenue,Winston-Salem,NC,27101,(336) 723-3140,pfulton03@yahoo.com,www.ejacademy.org,Patricia  Fulton,36.11044834,-80.2305774
Epiphany School of Charlotte,1000 E. Morehead Street,Charlotte,NC,28204,"1000 E. Morehead Street Charlotte, NC 28204",1000 E. Morehead St.,Charlotte,NC,28204,(704) 496-9942,cassie.jones@epiphanyschoolofcharlotte.com,www.epiphanyschoolcharlotte.com,Cassie  Jones,35.21292619,-80.84389902
Epiphany School of Global Studies,2301 Trent Road,New Bern,NC,28562,"2301 Trent Road New Bern, NC 28562",2301 Trent Road,New Bern,NC,28562,(252) 638-0122,dwang@epiphanyglobalschool.org,www.epiphanyglobalschool.org,Mr. David  Wang,35.102288,-77.07547395
Episcopal Day School,340 E. Massachusetts Avenue,Southern Pines,NC,28387,"340 E. Massachusetts Avenue Southern Pines, NC 28387",340 E. Massachusetts Ave.,Southern Pines,NC,28387,(910) 692-3492,eds@episcopalday.org,www.episcopalday.org,Jill  Connett,35.1695104,-79.3921568
Evolve Early Learning,5 A Woodlad Dr,Asheville,NC,28806,"5 A Woodlad Dr Asheville, NC 28806",NA,NA,NC,NA,(828) 575-5077,evolveearlylearning@gmail.com,NA,Corrie Hill Price,35.5719923,-82.62150989
Excel Christian Academy,734 Apple Street,Burlington,NC,27217,"734 Apple Street Burlington, NC 27217",NA,NA,NC,NA,(336) 226-8526,lcovington@ebenezerucc.com,NA,Dr. Frances Vanessa Diggs,36.10507219,-79.42898633
F.A.C.T. Day Treatment School,120 Henderson Drive,Jacksonville,NC,28540,"120 Henderson Drive Jacksonville, NC 28540",120 Henderson Drive,Jacksonville,NC,28540,(910) 346-3744,fact@mhfc.org,www.mhfc.org,Faith  Lane,34.76051228,-77.41704384
Faith Academy Christian School,2305 Elbon Drive,Winston-Salem,NC,27105,"2305 Elbon Drive Winston-Salem, NC 27105",2305 Elbon Drive,NA,NA,NA,(336) 986-5835,imas40@yahoo.com,NA,Ms. Denice  Davis,36.12031829,-80.21403697
Faith Assembly Christian Academy,3120 Fayetteville Street,Durham,NC,27707,"3120 Fayetteville Street Durham, NC 27707",3120 Fayetteville Street,Durham,NC,27707,(919) 687-2763,faca@facc-ministries.org,www.facadurham.org,Ayana  Garrison-Gaither,35.9623631,-78.90864553
Faith Baptist Christian School,6840 Wilson Grove Road,Charlotte,NC,28227,"6840 Wilson Grove Road Charlotte, NC 28227",6840 Wilson Grove Road,Charlotte,NC,28227,(704) 545-0937,fbcscharlotte@gmail.com,NA,Mrs. Amy  Rogerson,35.19591159,-80.68253189
Faith Christian Academy,904 Chipola Street,Kannapolis,NC,28083,"904 Chipola Street Kannapolis, NC 28083",904 Chipola Street,Kannapolis,NC,28083,(704) 935-5099,pcahoon@faithchurch.info,www.faithkannapolis.com,Rev. Paul  Cahoon,35.49439581,-80.60924669
Faith Christian Academy,247 NC Hwy 87,Burlington,NC,27217,"247 NC Hwy 87 Burlington, NC 27217",247 NC Hwy 87,Burlington,NC,27217,(336) 263-7642,carmen@faithca.com,www.faithca.com,Ms. Carmen  Bullard,36.11585675,-79.48081916
Faith Christian School,5449 Brookhaven Road,Ramseur,NC,27316,"5449 Brookhaven Road Ramseur, NC 27316",5449 Brookhaven Road,Ramseur,NC,27316,(336) 824-4156,school@faithramseur.org,www.faithramseur.org,Mr. Todd  Daniel,35.70815115,-79.63216668
Faith Christian School,1333 Faith Christian Drive,Rocky Mount,NC,27803,"1333 Faith Christian Drive Rocky Mount, NC 27803",1333 Faith Christian Dr.,Rocky Mount,NC,27803,(252) 443-3700,erik.harris@fcspatriots.com,www.fcspatriots.com,Mr. Erik  Harris,35.93028762,-77.84491447
Faith Education Academy,111 North Layton Avenue,Dunn,NC,28334,"111 North Layton Avenue Dunn, NC 28334",2082 Arrowhead Road  Dunn,Dunn,NC,28334,(910) 892-9900,feaacademy@yahoo.com,www.faitheducationacademync.com,Mrs. Teresa E. Jones,35.31026186,-78.61349988
Father Vincent Capodanno High School,4364 US HWY 1,Vass,NC,28394,"4364 US HWY 1 Vass, NC 28394",4364 US HWY 1,Vass,NC,28394,(910) 245-2246,joe.skillman@capodannohigh.org,www.capodannohigh.org,Frances  Klotz,35.23897542,-79.3032789
Fayetteville Academy,3200 Cliffdale Road,Fayetteville,NC,28303,"3200 Cliffdale Road Fayetteville, NC 28303",3200 CLIFFDALE ROAD,FAYETTEVILLE,NC,28303,(910) 868-5131,bfisher@fayacademy.org,www.fayacademy.org,N. Blair  Fisher,35.06199655,-78.94000762
Fayetteville Christian School,1422 Ireland Drive,Fayetteville,NC,28304,"1422 Ireland Drive Fayetteville, NC 28304",1422 Ireland Drive,Fayetteville,NC,28304,(910) 483-3905,sweldy@fayettevillechristian.com,www.fayettevillechristian.com,Mrs. Tammi  Peters,35.0378628,-78.94707304
Fayetteville Street Christian School,151 W. Pritchard Street,Asheboro,NC,27203,"151 W. Pritchard Street Asheboro, NC 27203",151 W. Pritchard Street,Asheboro,NC,27203,(336) 629-1383,officeadmin@fscspatriots.org,www.fscspatriots.org,Mr. Gary  Kidd,35.71745833,-79.81179078
Fearfully & Wonderfully Made Aca,2109 Dogwood Lane,Kinston,NC,28504,"2109 Dogwood Lane Kinston, NC 28504",717 Rosanne Drive Suite 2,Kinston,NC,28501,(252) 642-0030,amefford.fwm@gmail.com,NA,Andrea  Mefford,35.2897384,-77.6634503
Fellowship Baptist Academy,450 Muldee Street,Durham,NC,27703,"450 Muldee Street Durham, NC 27703",450 Muldee Street,Durham,NC,27703,(919) 596-9331,rickfinley59@yahoo.com,www.fbcofdurham.org,Dr. Rick  Finley,35.99482081,-78.86256137
Fellowship Christian Academy,7 East Drive,Jacksonville,NC,28546,"7 East Drive Jacksonville, NC 28546",7 East Dr,Jacksonville,NC,28546,(910) 346-2222,office@fbc-fca.com,www.fbc-fca.com,Rev. Robert  Wiedell,34.7400774,-77.35852835
Fellowship Christian Academy,1305 Hulsey Rd,Carthage,NC,28327,"1305 Hulsey Rd Carthage, NC 28327",1305 Hulsey Rd,Carthage,NC,28327,(910) 947-1412,nussbaumer@ncftoday.com,www.fellowshipchristianacademy.com,Paul L. Nussbaumer,35.32049718,-79.35390529
Fellowship Christian School,902 South Rocky River Rd,Monroe,NC,28110,"902 South Rocky River Rd Monroe, NC 28110",NA,NA,NA,NA,(704) 221-2785,fellowshipchristian2000@gmail.com,fellowshipchristians.com,Dr. Earl M. Griffin,34.96780115,-80.62061123
First Assembly Christian School,2500 Arnold Drive,Monroe,NC,28110,"2500 Arnold Drive Monroe, NC 28110",2500 Arnold Drive,Monroe,NC,28110,(704) 635-7262,firstagofmonroe@aol.com,NA,Rev. Steve  Hastings,35.01341281,-80.58352257
First Harvest Academy,1800 N Main st,High point,NC,27262,"1800 N Main st High point, NC 27262",1106 edinburgh dr,Jamestown,NC,27282,(336) 991-9000,Candace@firstharvestacademy.com,NA,Candace Colleen Hayes,35.9783159,-80.02036613
First Impressions Academy,6965 Nexus Court,Fayetteville,NC,28304,"6965 Nexus Court Fayetteville, NC 28304",6965 Nexus Court,Fayetteville,NC,28304,(910) 339-0524,firstimpressions@rocketmail.com,www.fiaprepschools.com,Ms. Christy  Pettit,35.03502735,-79.01399869
First Presbyter Weekday School,414 Sunset Rd NW,Wilson,NC,27893,"414 Sunset Rd NW Wilson, NC 27893",414 Sunset Rd NW,Wilson,NC,27893,(252) 243-3115,fpcschool@gmail.com,NA,Kathy  Maurice,35.73455762,-77.92370519
First Presbyterian School,1604 Arendell Street,Morehead City,NC,28557,"1604 Arendell Street Morehead City, NC 28557",1604 Arendell Street,Morehead City,NC,28557,(252) 247-2202,preschool@firstpresmhc.org,NA,Paula Johnson Stewart,34.72237504,-76.72412386
First Wesleyan Christian School,208-A South Church Street,Gastonia,NC,28054,"208-A South Church Street Gastonia, NC 28054",208-A South Church St,Gastonia,NC,28054,(704) 865-9823,office@fwcsfwcs.org,fwcsfwcs.org,Dr. Gina  Thornburg,35.26219791,-81.16825845
Five Oaks SDA School,4124 Farrington Road,Durham,NC,27707,"4124 Farrington Road Durham, NC 27707",4124 Farrington Road,Durham,NC,27707,(919) 493-5555,5oaks4him@gmail.com,www.fiveoaksschool.org,Steven  Champion,35.94260422,-78.98386826
Flaming Sword Christian Academy,3230 Legion Road,Hope Mills,NC,28348,"3230 Legion Road Hope Mills, NC 28348",3230 Legion Rd,Hope Mills,NC,28348,(910) 764-3500,wanda@flamingswordcampus.org,www.flamingswordcampus.org,Dr. Wanda  Hatmaker,35.0020786,-78.91774861
Fletcher Academy,400 Cedarview Court (upper School),Raleigh,NC,27609,"400 Cedarview Court (upper School) Raleigh, NC 27609",1116 N Blount Str  (Lower School),Raleigh,NC,27604,(919) 782-5082,patkinson@tfaraleigh.org,tfaraleigh.org,Paul  Atkinson,35.85659632,-78.6314238
Fletcher School,8500 Sardis Road,Charlotte,NC,28270,"8500 Sardis Road Charlotte, NC 28270",8500 Sardis Road,Charlotte,NC,28270,(704) 365-4658,info@thefletcherschool.org,www.thefletcherschool.org,Dr. Tara  Terry,35.12927918,-80.75710501
Floyd Christian School,3652 Price Road,Eden,NC,27288,"3652 Price Road Eden, NC 27288",NA,NA,NC,NA,(336) 623-5854,floydchristianschool@gmail.com,NA,Tania Kallam Martin,36.51235255,-79.8538014
Follow the Child Montessori School,3601 Harden Road,Raleigh,NC,27607,"3601 Harden Road Raleigh, NC 27607",3601 Harden rd,Raleigh,NC,27607,(919) 755-1150,rebecca@followthechild.org,www.followthechild.org,Ms. Rebecca Phipps McGrail,35.81303092,-78.70102497
Footprints Learning & Leadership Academy,1100 Elliot Rd,Charlotte,NC,28216,"1100 Elliot Rd Charlotte, NC 28216",1100 Elliott Rd,Charlotte,NC,28216,(704) 900-3127,kristinj@homeschoolingfootprints.com,homescholingfootprints.com,Kristin  Jackson,35.30976226,-80.91952096
Foundations Christian Academy,53 Foundations Rd.,Dunn,NC,28334,"53 Foundations Rd. Dunn, NC 28334",1560 Stewart Road,Dunn,NC,28334,(910) 892-8761,dowilson@foundations.edu,NA,Dr. Douglas  Wilson,35.35017087,-78.55547196
Franciscan Catholic School,10000 St. Francis Drive,Raleigh,NC,27613,"10000 St. Francis Drive Raleigh, NC 27613",10000 St. Francis Drive,Raleigh,NC,27613,(919) 534-4840,dawn.smith@franciscanschool.org,www.franciscanschool.org,Ms. DawnMarie  Smith,35.91822687,-78.74153091
Freedom Academy,7921 US 158,Reidsville,NC,27320,"7921 US 158 Reidsville, NC 27320",7921 US 158,Reidsville,NC,27320,(336) 865-0728,Office@freedomacademypats.com,www.freedomacademypats.com,Alyson Gunn Walker,36.32320397,-79.71395965
Freedom Christian Academy,2401 Eric Lane Suite 102,Burlington,NC,27215,"2401 Eric Lane Suite 102 Burlington, NC 27215",NA,NA,NC,NA,(336) 494-8490,j.livers@fca-eagles.com,NA,Kevin  Bowman,36.06515242,-79.47830625
French Broad River Academy,1990 Riverside Drive (boys campus),Asheville,NC,28804,"1990 Riverside Drive (boys campus) Asheville, NC 28804",1420 Riverside Drive (girls campus),Asheville,NC,28804,(828) 348-4320,office@fbriveracademy.org,www.fbra-avl.org,Will  Yeiser,35.63991507,-82.59704285
Friends School,5814 Camellia Lane,Wilmington,NC,28409,"5814 Camellia Lane Wilmington, NC 28409",5814 Camellia Lane,Wilmington,NC,28409,(910) 792-1811,info@fsow.org,www.fsow.org,Ms. Brenda  Esch,34.20543098,-77.84712622
Friendship Christian School,5510 Falls of Neuse Road,Raleigh,NC,27609,"5510 Falls of Neuse Road Raleigh, NC 27609",5510 Falls of Neuse Road,Raleigh,NC,27609,(919) 872-2133,fcsmail@friendshipchristian.net,www.friendshipchristian.net,Mr. David  McClain,35.8568908,-78.61583335
Friendship Day Sch. for Sci. & the Arts,3400 Beatties Ford Road,Charlotte,NC,28216,"3400 Beatties Ford Road Charlotte, NC 28216",3400 Beatties Ford Road,Charlotte,NC,28216,(704) 391-6674,dayschool@friendshipcharlotte.org,www.friendshipdayschoolcharlotte.org,Linda  Comer,35.28082724,-80.85646698
Friends-Montessori School,94 Justice Ridge Road,Candler,NC,28715,"94 Justice Ridge Road Candler, NC 28715",23 Community Road,Woodfin,NC,28804,(423) 388-5393,carabeth@friends-montessori.org,www.friends-montessori.org,Cara Beth  Brackins,35.5455658,-82.697342
Fusion Academy and Learning Center - Charlotte,3540 Toringdon Way  Suite 100,Charlotte,NC,28277,"3540 Toringdon Way  Suite 100 Charlotte, NC 28277",3540 Toringdon Way  Suite 100,Charlotte,NC,28277,(980) 265-3221,aatchley@fusionacademy.com,https://www.fusionacademy.com/campuses/charlotte/?,Alane  Atchley,35.06836092,-80.8407029
Fusion Academy and Learning Center - Raleigh,2418 Blue Ridge Road Suite 200,Raleigh,NC,27607,"2418 Blue Ridge Road Suite 200 Raleigh, NC 27607",2418 Blue Ridge Road Suite 200,Raleigh,NC,27607,(919) 635-8915,lavery@fusionacademy.com,https://www.fusionacademy.com/campuses/raleigh/?cr,Lauren  Avery,35.81347886,-78.70546043
Galilee Christian Academy,101 E Park Avenue,Lexington,NC,27292,"101 E Park Avenue Lexington, NC 27292",101 E Park Avenue,Lexington,NC,27292,(336) 225-7584,powell.wade@yahoo.com,NA,Mr. Daniel  Sneed,35.73606053,-80.19722325
Garnett Christian Academy,4747 Lake Wilson Road,Elm City,NC,27822,"4747 Lake Wilson Road Elm City, NC 27822",4747 Lake Wilson Road,Elm City,NC,27822,(252) 237-8668,garnettchristianacademy@yahoo.com,www.gcaelmcity.org,Nathan  Roberts,35.79063397,-77.91462676
Gaston Christian - East Cleveland Campus,1625 Lowell Bethesda Road  Gaston Christian School,Gastonia,NC,28056,"1625 Lowell Bethesda Road  Gaston Christian School Gastonia, NC 28056",105 E. Ridge Street,Kings Mountain,NC,28086,(704) 349-5025,vahearn@gastonchristian.org,www.gastonchristian.org,Nancy  Roach,35.25258144,-81.09671377
Gaston Christian School,1625 Lowell Bethesda Road,Gastonia,NC,28056,"1625 Lowell Bethesda Road Gastonia, NC 28056",1625 Lowell Bethesda Road,Gastonia,NC,28056,(704) 349-5020,nroach@gastonchristian.org,www.gastonchristian.org,Dr. Marc T. Stout,35.25258144,-81.09671377
Gateway Academy Child Development,3200 McKee Road,Charlotte,NC,28270,"3200 McKee Road Charlotte, NC 28270",3200 McKee Road,Charlotte,NC,28270,(704) 847-0046,mckee@gatewayacademy.com,WWW.GATEWAYACADEMY.COM,Andrea  Cummings,35.07714747,-80.74137497
Gateway Christian School,10781 NC 50 North,Benson,NC,27504,"10781 NC 50 North Benson, NC 27504",10781 NC 50 North,Benson,NC,27504,(919) 894-5936,carolyn.currin@gmail.com,NA,Mr. Durwood  Young,35.51846518,-78.57928972
Genesis Academy,428 Georges Fork Road,Burnsville,NC,28714,"428 Georges Fork Road Burnsville, NC 28714",428 Georges Fork Road,Burnsville,NC,28714,(828) 536-4819,genesisacademy@hotmail.com,NA,Mrs. Marsha  McKinney,35.9089496,-82.25918407
Genesis Christian School,6917 Raeford Rd.,FAYETTEVILLE,NC,28304,"6917 Raeford Rd. FAYETTEVILLE, NC 28304",1713 Royal Gorge Rd.,Fayetteville,NC,28304,(910) 568-5685,info@GLAcademyNC.com,www.GCSJaguars.com,Tre'vone  McNeill,35.03688755,-79.01045312
Georgetown village minded acad,1239-300 Hargett Street,Jacksonville,NC,28540,"1239-300 Hargett Street Jacksonville, NC 28540",1239 Hargett Street,Jacksonville,NC,28540,(910) 939-2122,stacey.owens@georgetownvma.com,www.georgetownvma.com,stacey lynne owens-howard,34.7507209,-77.41361195
Gethsemane Christian SDA Jr. Acad.,2523 Sanderford Road,Raleigh,NC,27610,"2523 Sanderford Road Raleigh, NC 27610",2523 Sanderford Road,Raleigh,NC,27610,(919) 833-1844,info@gethsemanesdaschool.org,www.gethsemanesdaschool.org,Ms. Jennifer  Mabry,35.7455895,-78.61377575
Gift of Knowledge Academy,2722 East Main St,Durham,NC,27703,"2722 East Main St Durham, NC 27703",2722 East Main St,Durham,NC,27703,(919) 818-8181,debogift@yahoo.com,www.giftofknowledgeacademy.org,Deborah  Watkins,35.98688068,-78.86761352
Global Montessori Academy,6453 NC Hwy 55,Durham,NC,27713,"6453 NC Hwy 55 Durham, NC 27713",6453 NC Hwy 55,Durham,NC,27713,(919) 345-5896,mary@globalmontessori.org,www.globalmontessori.org,Mrs. Mary  Opatha,35.86908174,-78.89193144
Goddard School,10550 Little Brier Creek Lane,Raleigh,NC,27617,"10550 Little Brier Creek Lane Raleigh, NC 27617",10550 Little Brier Creek Lane,Raleigh,NC,27617,(919) 572-0678,raleigh1nc@goddardschools.com,www.goddardschools.com,Kruti  Desai,35.91455081,-78.79007448
Good Shepherd Christian School,13110 Moss Rd,Charlotte,NC,28273,"13110 Moss Rd Charlotte, NC 28273",13110 Moss Rd,Charlotte,NC,28273,(704) 588-3309,jamiehowell@gscharlotte.org,www.GoodShepherdChristian.school,Jamie Simmons Howell,35.11617192,-80.96295801
Gorman Christian Academy,3311 East Geer Street,Durham,NC,27704,"3311 East Geer Street Durham, NC 27704",3315 East Geer Street,Durham,NC,27704,(919) 688-2567,arinaldi@gormanca.org,www.gormanchristian.org,Amy  Rinaldi,36.04281513,-78.81519559
Gospel Light Academy,11572 Troutman Rd.,Midland,NC,28107,"11572 Troutman Rd. Midland, NC 28107",12021 Flowes Store Road,Midland,NC,28107,(980) 254-0418,glamidland@gmail.com,NA,Daniel  Ilnitskiy,35.25803497,-80.53032296
Grace Academy,3645 Pleasant Plains Rd,Matthews,NC,28104,"3645 Pleasant Plains Rd Matthews, NC 28104",3645 Pleasant Plains Road,Matthews,NC,28104,(704) 234-0292,graceacademy@graceacademync.com,www.graceacademync.com,Mr. Bob  Daniel,35.08433204,-80.70121037
Grace Christian Academy,420 Branch Street,Kings Mountain,NC,28086,"420 Branch Street Kings Mountain, NC 28086",420 Branch Street,Kings Mountain,NC,28086,(704) 734-0509,gracechristian1990@hotmail.com,www.gracechristiankm.com,Stephanie  Chambers,35.24632768,-81.33210315
Grace Christian Academy,415 Roxboro Street,Haw River,NC,27258,"415 Roxboro Street Haw River, NC 27258",415 Roxboro Street,Haw River,NC,27258,(336) 578-0291,admin@gcachargers.com,www.gca-nc.com,Bill  George,36.09993706,-79.35228612
Grace Community School,415 Thorncliff Drive,Fayetteville,NC,28303,"415 Thorncliff Drive Fayetteville, NC 28303",3744 Legion Road,Hope Mills,NC,28348,(910) 309-0161,cameronflorio@gmail.com,NA,Cameron Henrickson Floiro,35.05924665,-78.93288224
Grace Covenant Academy,17301 Statesville Road,Cornelius,NC,28031,"17301 Statesville Road Cornelius, NC 28031",17301 Statesville Road,Cornelius,NC,28031,(704) 892-5601,rlandis@gracecovenant.org,www.gracecovenant.org,Rich  Landis,35.45099939,-80.86708972
Grace Point Christian Academy,5934 Surrett Drive,Archdale,NC,27263,"5934 Surrett Drive Archdale, NC 27263",5934 Surrett Dr.,Archdale,NC,27263,(336) 688-5217,gracepointgpca@gmail.com,Gracepointgpca.com,Malinda  Lewis,35.90140038,-80.00012917
Gramercy Christian School,8170 Highway 70,Newport,NC,28570,"8170 Highway 70 Newport, NC 28570",8170 Highway 70,Newport,NC,28557,(252) 223-5199,gcswithee@gmail.com,www.gramercychristian.org,Kara  Withee,34.82860112,-76.87741742
Great Accomplishments Acad.,3011 NC Hwy 42 W  Ste 138,Wilson,NC,27893,"3011 NC Hwy 42 W  Ste 138 Wilson, NC 27893",2301 Montgomery Drive  Wilson NC  27893,Wilson,NC,27896,(252) 360-9338,tblackmond420@gaautismacademy.com,www.gaautismacademy.com,Ms. Tonya  Blackmond,35.7197588,-77.95248973
Greater Destiny Academy,1520 Martin Street 106,Winston Salem,NC,27103,"1520 Martin Street 106 Winston Salem, NC 27103",NA,NA,NA,NA,(743) 444-7646,info@greaterdestinyacademy.org,NA,Tommy Lee Moss Jr,36.0696002,-80.27606189
Greater Destiny Prep Academy,7465 Pitt Street,Grimesland,NC,27837,"7465 Pitt Street Grimesland, NC 27837",4371 US 264,Washington,NC,27889,(252) 350-2015,info@greater-destiny.org,www.greater-destiny.org,Heather  Collins,35.56512921,-77.19552032
Greater Fayetteville Adventist Acad.,2601 Lone Pine Drive,Fayetteville,NC,28306,"2601 Lone Pine Drive Fayetteville, NC 28306",2601 Lone Pine Drive,Fayetteville,NC,28306,(910) 484-6091,secretary.gfaa@outlook.com,www.gfaaeagles.org,Mrs. Shakuntala  Ramsarran,35.01993196,-78.90722946
Greater Vision Academy,485 Brightwood Church Road,Gibsonville,NC,27249,"485 Brightwood Church Road Gibsonville, NC 27249",485 Brightwood Church Road,Gibsonville,NC,27249,(336) 512-4766,trevsam@embarqmail.com,www.greatervisionnc.com,Mrs. Shanna  Summers,36.07360541,-79.58343792
Greenfield School,3351 NC Hwy 42 West,Wilson,NC,27893,"3351 NC Hwy 42 West Wilson, NC 27893",3351 NC Hwy 42 W,Wilson,NC,27893,(252) 237-8046,deb.rogers@greenfieldschool.org,www.greenfieldschool.org,Debra  Benson-Rogers,35.72086361,-77.9643921
Greensboro Day School,5401 Lawndale Drive,Greensboro,NC,27455,"5401 Lawndale Drive Greensboro, NC 27455",5401 Lawndale Dr,Greensboro,NC,27455,(336) 288-8590,gailbernstein@greensboroday.org,www.greensboroday.org,Ms. Tracie  Catlett,36.15234031,-79.83589645
Greensboro Islamic Academy,900 16th Street,Greensboro,NC,27405,"900 16th Street Greensboro, NC 27405",900 16th Street,Greensboro,NC,27405,(336) 285-7766,kjbherrington@gmail.com,www.gianc.org,Kathleen  Herrington,36.10911225,-79.77834114
Greensboro Montessori School,2856 Horse Pen Creek Rd.,Greensboro,NC,27410,"2856 Horse Pen Creek Rd. Greensboro, NC 27410",2856 Horse Pen Creek Rd.,Greensboro,NC,27410,(336) 668-0119,kevin.navarro@thegms.org,www.gms.org,Mr. Kevin  Navarro,36.13209746,-79.88689566
Greenville Christian Academy,1621 Greenville Blvd.  S.W.,Greenville,NC,27834,"1621 Greenville Blvd.  S.W. Greenville, NC 27834",1621 Greenville Blvd.  S.W.,Greenville,NC,27834,(252) 756-0939,gcanc@greenvillechristian.com,www.greenvillechristian.com,Mr. Dave  Weaver,35.57554109,-77.42356995
Greenville Montessori School,822 Laurie Ellis Road,Winterville,NC,28590,"822 Laurie Ellis Road Winterville, NC 28590",822 Laurie Ellis Road,Winterville,NC,28590,(252) 355-6268,office@greenvillemontessori.com,www.greenvillemontessori.com,Mrs. Lesley  Byrne-Steedly,35.51779049,-77.37745489
Greyfriars Classical Academy,2701 Rice Road,Matthews,NC,28105,"2701 Rice Road Matthews, NC 28105",2701 Rice Road,Matthews,NC,28105,(704) 315-5774,headmaster@greyfriarsclassical.org,www.greyfriarsclassical.org,Mr. John D. McGowan,35.13937524,-80.70351449
Grove School of Cary,2590 Laura Duncan Road,Cary,NC,27513,"2590 Laura Duncan Road Cary, NC 27513",2590 Laura Duncan Road,Cary,NC,27513,(919) 467-6494,Anneke.Braisted@kindercare.com,www.groveschool.com,Mrs. Anneke  Braisted,35.76385377,-78.82311458
Guidepost Montessori at Lake Norman,15115 Norman View Lane,Huntersville,NC,28078,"15115 Norman View Lane Huntersville, NC 28078",15115 Norman View Lane,Huntersville,NC,28078,(704) 885-5080,lmacartney@guidepostmontessori.com,NA,Laura  Macartney,35.44043179,-80.9000835
Halifax Academy,1400 Three Bridges Road,Roanoke Rapids,NC,27870,"1400 Three Bridges Road Roanoke Rapids, NC 27870",1400 Three Bridges Road,Roanoke Rapids,NC,27870,(252) 537-8527,apoole@halifaxacademy.org,www.halifaxacademy.org,Mr. Michael  Ferguson,36.39720099,-77.67217425
Hampton Education Academy,712 Runningbrook Lane,Rural Hall,NC,27045,"712 Runningbrook Lane Rural Hall, NC 27045",7820 North Point Blvd.  Suite 103,Winston Salem,NC,27106,(336) 582-4000,hamptoneduccllc@gmail.com,Hampton,De'Shaunda Anita Hampton,36.22054355,-80.30017156
Hanger Hall School for Girls,64 W.T. Weaver Blvd.,Asheville,NC,28804,"64 W.T. Weaver Blvd. Asheville, NC 28804",64 W.T. Weaver Blvd.,Asheville,NC,28804,(828) 258-3600,jennifers@hangerhall.org,www.hangerhall.org,Jennifer  Schoolfield,35.61419021,-82.55853252
Harvest Time Christian Acad.,400 Winston Street,Wilkesboro,NC,28697,"400 Winston Street Wilkesboro, NC 28697",400 Winston Street,Wilkesboro,NC,28697,(336) 667-9105,htca.school@yahoo.com,NA,Mr. Gene C. Shepherd,36.1517978,-81.1435361
Haw River Christian Academy,2428 Silk Hope Gum Springs Rd.,Pittsboro,NC,27312,"2428 Silk Hope Gum Springs Rd. Pittsboro, NC 27312",2428 Silk Hope Gum Springs Rd.,Pittsboro,NC,27312,(919) 414-7735,heather.baker@hawriverchristian.org,www.hawriverchristian.org,Heather  Baker,35.77096847,-79.27267445
Hawthorn Montessori School,871 Riverside Drive,Asheville,NC,28804,"871 Riverside Drive Asheville, NC 28804",871 Riverside Drive,asheville,NC,28804,(904) 476-3691,katie@hawthornmontessori.org,hawthornmontessori.org,Katie  Anderson,35.618805,-82.57593081
Hayworth Christian School,1696 Westchester Dr,High Point,NC,27262,"1696 Westchester Dr High Point, NC 27262",1696 Westchester Dr.,High Point,NC,27262,(336) 882-3126,michele.barker@hayworth.info,www.hayworth.info,Dr. Kenneth S. Lee,35.95126686,-80.033539
Headwaters Christian Academy,2659 S Chipley Ford Rd,STATESVILLE,NC,28625,"2659 S Chipley Ford Rd STATESVILLE, NC 28625",2659 S Chipley Ford Rd,STATESVILLE,NC,28625,(704) 876-1520,kim@southriverbaptist.com,headwaters-academy.com,Kimberley Sue Williams,35.85009825,-80.90426655
Heritage Christian Academy,615 Mack Todd Road,Zebulon,NC,27597,"615 Mack Todd Road Zebulon, NC 27597",615 Mack Todd Road,Zebulon,NC,27597,(919) 269-6915,office@hca-nc.org,www.hca-nc.org,Mr. Joel  Dupree,35.81674579,-78.32788213
Heritage Christian School,239 Mount Herman Road,Hudson,NC,28638,"239 Mount Herman Road Hudson, NC 28638",239 Mt. Herman Road,Hudson,NC,28638,(828) 726-0055,twinters@heritagechristianschool.info,www.heritagechristianschool.info,Mr. Tyler  Winters,35.85472959,-81.48918753
Heritage Hall International School,1787 Dana Road,Hendersonville,NC,28792,"1787 Dana Road Hendersonville, NC 28792",1787 Dana Road,Hendersonville,NC,28724-0260,(828) 989-8465,HHinternationalschool@yahoo.com,www.heritagehallschool.org,Debra  Gerard,35.32925596,-82.37828251
Heron Pond Montessori School,3910 Poor Ridge Road,Kitty Hawk,NC,27949,"3910 Poor Ridge Road Kitty Hawk, NC 27949",3910 Poor Ridge Road/3852 N. Croatan Hwy.,Kitty Hawk,NC,27949,(252) 261-7891,hpmschool@gmail.com,www.heronpondmontessori.com,Mrs. Sallie  Ackley,36.05762458,-75.7150461
Hertford Multi-Purpose Juvenile Sch,114 Oak Villa Road,Winton,NC,27986,"114 Oak Villa Road Winton, NC 27986",114 Oak Villa Road,Winton,NC,27986,(252) 358-0433,HertfordPM@MHFC.org,www.mhfc.org,Calyb  Hare,36.37915145,-76.93913078
Hickory Day School,2535 21st Avenue  NE,Hickory,NC,28601,"2535 21st Avenue  NE Hickory, NC 28601",2535 21st Avenue NE,Hickory,NC,28601,(828) 256-9492,rseay@hickoryday.org,www.hickoryday.org,Mr. Richard  Seay,35.75550969,-81.28318462
High Falls Mennonite School,235 Golf Course Rd,Robbins,NC,27325,"235 Golf Course Rd Robbins, NC 27325",267 Glendon Carthage Rd,Robbins,NC,27325,(910) 464-3917,HFMennoniteSchool@gmail.com,NA,Abe Franklin Hunsberger,35.46416754,-79.5062099
High Point Christian Academy,800 Phillips Avenue,High Point,NC,27262,"800 Phillips Avenue High Point, NC 27262",800 Phillips Avenue,High Point,NC,27262,(336) 841-8702,jblackstock@hpcacougars.org,www.hpcacougars.org,Dr. Jeremy  Blackstock,35.9500372,-80.02514955
High Point Friends School,800-A Quaker Lane,High Point,NC,27262,"800-A Quaker Lane High Point, NC 27262",800-A Quaker Lane,High Point,NC,27262,(336) 886-5516,msmith@hpfs.org,www.hpfs.org,Mr. Tom  Franz,35.96118029,-80.02192841
Highlander Academy,200 North College Street,Red Springs,NC,28377,"200 North College Street Red Springs, NC 28377",200 North College Street,Red Springs,NC,28377,(910) 843-4995,office@highlanderacademyprep.org,www.highlanderacademy.com,Mrs. Debra  Duncan,34.8185805,-79.17859154
Hill School of Wilmington,3333 Jaeckle Drive  Suite 140,Wilmington,NC,28403,"3333 Jaeckle Drive  Suite 140 Wilmington, NC 28403",3333 Jaeckle Drive  Suite 140,Wilmington,NA,28403,(910) 685-3734,director@hillschoolofwilmington.org,www.hillschoolofwilmington.org,Ms. Susan M. Harrell,34.23159368,-77.89971859
Hillsborough Christian Academy,121 Orange High School Road,Hillsborough,NC,27278,"121 Orange High School Road Hillsborough, NC 27278",121 Orange High School Road,Hillsborough,NC,27278,(919) 732-0888,bturner@hillsboroughchristian.org,www.hillsboroughchristian.org,Bryan  Turner,36.0863444,-79.09247962
Holy Trinity Catholic Middle School,3100 Park Road,Charlotte,NC,28209,"3100 Park Road Charlotte, NC 28209",3100 Park Road,Charlotte,NC,28209,(704) 527-7822,kparks@htcms.net,www.htcms.org,Mr. Kevin  Parks,35.18873523,-80.85315516
Holy Youth Christian Academy,287 Old Lystra Road,Chapel Hill  NC,NC,27517,"287 Old Lystra Road Chapel Hill  NC, NC 27517",287 OLD LYSTRA RD,Chapel Hill,NC,27517,(984) 234-0077,info@holyyouthacademy.com,NA,Fr. Angelos  Bishara,35.84901222,-79.07905808
Hope Academy,1403 W Florida Street,Greensboro,NC,27403,"1403 W Florida Street Greensboro, NC 27403",1403 West Florida St.,Greensboro,NC,27403,(336) 907-7155,jmullins@hopeacademygso.org,hopegso.org,Josh  Mullins,36.05246981,-79.81449004
Hope Christian Academy,872 Fern Hill Rd.,Mooresville,NC,28117,"872 Fern Hill Rd. Mooresville, NC 28117",872 Fern Hill Rd.,mooresville,NC,28117,(704) 528-5555,paigeglascock@hcamooresville.com,hcamooresville.com,Mrs. Paige  Glascock,35.64262105,-80.90585944
Hope Creek Academy,4723 Erwin Road,Durham,NC,27705,"4723 Erwin Road Durham, NC 27705",4723 Erwin Road,Durham,NC,27705,(919) 932-0360,admin@hopecreek.net,www.hopecreekacademy.org,Jenni  Perez,35.9906815,-78.98618285
Hope Gardens Treatment Center,1958 Turnpike Road,Raeford,NC,28376,"1958 Turnpike Road Raeford, NC 28376",1958 Turnpike Road,Raeford,NC,28376,(910) 904-7180,mmcneil@ncprtf.com,www.ncprtf.com,Michael  McNeil,34.98910539,-79.25066694
Ignite Achievement Academy,6203 Carmel Road,Charlotte,NC,28226,"6203 Carmel Road Charlotte, NC 28226",6203 Carmel Road,Charlotte,NC,28226,(704) 542-6471,info@igniteachievementacademy.com,www.igniteachievementacademy.com,Dr. Kelly  Van Sande,35.09325583,-80.84281364
ILIM SCHOOL,8228 MARSHALL BRIDGE RD  Apt 4108,Charlotte,NC,28277,"8228 MARSHALL BRIDGE RD  Apt 4108 Charlotte, NC 28277",601 N Polk St suite L,Pineville,NC,28134,(704) 389-9408,info@ilimschool.com,ilimschool.com,Dria  Etienne,35.051425,-80.76426714
Imago Dei Classical Academy,2035 Jeffress Rd,Mills River,NC,28759,"2035 Jeffress Rd Mills River, NC 28759",2035 Jeffress Rd,Mills River,NC,28759,(828) 513-4966,idcacademync@gmail.com,idcanc.org,Noel  Hendrix,35.39909071,-82.56390892
Immaculata Catholic School,711 Buncombe Street,Hendersonville,NC,28791,"711 Buncombe Street Hendersonville, NC 28791",711 Buncombe Street,Hendersonville,NC,28791,(828) 693-3277,mbeale@immac.org,www.immac.org,Mrs. Maragret  Beale,35.31943834,-82.46377103
Immaculata Catholic School,721 Burch Avenue,Durham,NC,27701,"721 Burch Avenue Durham, NC 27701",721 Burch Ave,Durham,NC,27701,(919) 682-5847,provostm@icdurham.org,www.immaculataschool.org,Patrick  Kurz,35.99810445,-78.91338417
Immaculate Heart of Mary Cath Sch,4145 Johnson Street,High Point,NC,27265,"4145 Johnson Street High Point, NC 27265",4145 Johnson Street,High Point,NC,27265,(336) 887-2613,mleonard@ihm-school.com,www.ihm-school.com,Dr. Maryann  Leonard,36.03471984,-80.01878674
Impact Journey School,4705 N. Church Street,Greensboro,NC,27455,"4705 N. Church Street Greensboro, NC 27455",4705 N Church St  Greensboro  NC 27455,Greensboro,NC,27455,(336) 937-2867,mclambn@impactjourneyschool.org,www.impactjourneyschool.org,Kevin  Althoff,36.14460926,-79.79113619
Independent Compass,5709 Caratoke Hwy,Poplar Branch,NC,27965,"5709 Caratoke Hwy Poplar Branch, NC 27965",6387 Caratoke Hwy,Grandy,NC,27939,(252) 305-4266,independentcompass.nc@gmail.com,NA,Kimberly Sue Folds,36.28263594,-75.9158187
Infant of Prague Catholic School,501 Bordeaux Street,Jacksonville,NC,28540,"501 Bordeaux Street Jacksonville, NC 28540",501 Bordeaux Street,Jacksonville,NC,28540,(910) 455-0838,iop@iopschool.net,www.iopschool.net,Mrs. Jennifer  Feldhaus Bryson,34.75344492,-77.42583618
Insight Colearning Center,1325 Arnette Avenue,Durham,NC,27707,"1325 Arnette Avenue Durham, NC 27707",2020 Chapel Hill Road  Suite 33,Durham,NC,27707,(206) 898-1109,susan@insightcolearning.org,insightcolearning.org,Susan  Haws,35.98673559,-78.91431599
Intellicor International Academy,4301 Shamrock Drive,Charlotte,NC,28215,"4301 Shamrock Drive Charlotte, NC 28215",4301 Shamrock Drive,Charlotte,NC,28215,(704) 290-2000,principal@intellicoracademy.org,www.IntellicorAcademy.org,Dr. Adnan Yusuf Gorani,35.22951985,-80.75137204
International Montessori School,3001 Academy Rd. Suite 300,Durham,NC,27707,"3001 Academy Rd. Suite 300 Durham, NC 27707",3001 Academy Rd. Suite 300; 5510 Barbee Chapel Rd Bldg 2  Chapel Hill,Durham,NC,27707,(919) 401-4343,office@imsnc.org,www.imsnc.org,Angela  Bailey,35.97041618,-78.94361872
Iron Academy,3510 Edwards Mill Road,Raleigh,NC,27612,"3510 Edwards Mill Road Raleigh, NC 27612",NA,NA,NA,NA,(919) 977-8811,hahn@ironacademy.org,www.ironacademy.org,Mr. Alan  Hahn,35.8277237,-78.70322888
Jackson Springs Treatment Facility,778 Hoffman Road,West End,NC,27376,"778 Hoffman Road West End, NC 27376",778 Hoffman Road,West End,NC,27376,(910) 673-0833,hcameron@ncprtf.com,www.ncprtf.com,Horran  Cameron,35.21011442,-79.5594993
Jacksonville Christian Academy,919 Gum Branch Road,Jacksonville,NC,28540,"919 Gum Branch Road Jacksonville, NC 28540",919 Gumbranch Road,Jacksonville,NC,28540,(910) 347-2358,jcaelementaryprincipal@gmail.com,www.jacksonvillechristianacademy.com,Rev. Curtis  Linton,34.77517689,-77.4114004
Jarvisburg Christian Academy,121 Forbes Road,Jarvisburg,NC,27947,"121 Forbes Road Jarvisburg, NC 27947",121 Forbes Road,Jarvisburg,NC,27947,(252) 491-8283,jca.board.of.directors@gmail.com,www.jarvisburgchristianacademy.info,Kim M. Payne,36.20120532,-75.8639389
Jesus Reigns STEMSSORI Academy,5807 Southstone Drive,Greensboro,NC,27406,"5807 Southstone Drive Greensboro, NC 27406",802 E. Market Street,Greensboro,NC,27401,(336) 272-0822,jesusreignsstemssori@gmail.com,NA,Felicia  Freeman,35.96684932,-79.69269393
John Paul II Catholic High School,2725 E. 14th Street,Greenville,NC,27858,"2725 E. 14th Street Greenville, NC 27858",2725 E. 14th Street,Greenville,NC,27858,(252) 215-1224,kstanley@jp2highschool.com,www.jp2highschool.com,Mary Katherine Stanley,35.57864021,-77.343054
Jordan Lakes School of the Arts,1434 Farrington Road Ste 100,Apex,NC,27523,"1434 Farrington Road Ste 100 Apex, NC 27523",1434 Farrington Road,Apex,NC,27523,(919) 387-9440,bakuklinski@msn.com,www.jordanlakesa.com,Mrs. Beth  Kuklinski,35.75602162,-79.00963009
KaiYros Prep Academy,3253 S Church Street,Burlington,NC,27215,"3253 S Church Street Burlington, NC 27215",NA,NA,NA,NA,(336) 303-1588,stephandellielove@gmail.com,NA,Eleanor  Love,36.08072808,-79.50826632
Kensington Christian Academy,1207 Kensington Drive,High Point,NC,27262,"1207 Kensington Drive High Point, NC 27262",NA,NA,NA,NA,(336) 887-7768,info@hpfwc.com,NA,Stephanie  Adkins,35.96563277,-80.03601474
Kent Academy,125 Baldwin Ave  Suite 200,Charlotte,NC,28204,"125 Baldwin Ave  Suite 200 Charlotte, NC 28204",125 Baldwin Ave  Suite 200,Charlotte,NC,28204,(704) 996-8283,bwilliams@kentacademycharlotte.com,kentacademycharlotte.com,Dr. Brandi G. Williams,35.21283543,-80.82812006
Kerr-Vance Academy,700 Vance Academy Road,Henderson,NC,27537,"700 Vance Academy Road Henderson, NC 27537",700 Vance Academy Road,Henderson,NC,27537,(919) 691-2681,bcook@kerrvance.com,www.kerrvance.com,Ms. Beth  Cook,36.29401055,-78.45134379
Kid Stars Rising Christian Learning Academy,2122 Hope Mills Road,Fayetteville,NC,28304,"2122 Hope Mills Road Fayetteville, NC 28304",2122 HOPE MILLS RD & 6248 Cliffdale Road  Fayetteville  NC,Fayetteville,NC,28304,(910) 779-8085,kidstarsrising@gmail.com,www.kidstarsrisingacademy.com,Dr. Sharonne Denise Simmons,35.01796951,-78.96353492
Kiddie Academy of Charlotte,9310 Blakeney Center Drive,Charlotte,NC,28277,"9310 Blakeney Center Drive Charlotte, NC 28277",9310 Blakeney Center Drive,Charlotte,NC,28277,(704) 543-5581,kablakeneydirector@gmail.com,kiddieacademy.com,Angenetta  Sawyer,35.03085238,-80.80913393
Kids R Kids School,6250 Blakeney Park Drive,Charlotte,NC,28277,"6250 Blakeney Park Drive Charlotte, NC 28277",6250 Blakeney Park Drive,Charlotte,NC,28277,(704) 543-7227,sarita@kidsrkidsblakeney.com,www.kidsrkidsblakeney.com,Miss Sarita  Wilson,35.02905592,-80.8089111
Kids R Kids School - Clayton,307 Tew Court,Clayton,NC,27520,"307 Tew Court Clayton, NC 27520",307 Tew Ct,Clayton,NC,27520,(919) 550-8864,krkadmin@kidsrkidsclayton.com,www.kidsrkidsclayton.com,Jennifer  Casillas,35.66407223,-78.49115425
King Family Ministries Sch.,1095 Damascus Road,Danbury,NC,27016,"1095 Damascus Road Danbury, NC 27016",1090 Damascus Rd,Danbury,NC,27016,(336) 403-8452,tammyk100@gmail.com,NA,Mr. Tammy  King,36.43987718,-80.19375372
Kingdom Kids Empowerment Acad,279 church St NE,Concord,NC,28025,"279 church St NE Concord, NC 28025",266 Young Ave SW,Concord,NC,28025,(704) 245-5294,ceo.kingdomkidscc@gmail.com,Www.kkempoweracademy.com,Tanisha  DaCosta,35.41778329,-80.58774333
King's Academy,1350 S Winstead Avenue,Rocky Mount,NC,27803,"1350 S Winstead Avenue Rocky Mount, NC 27803",1350 S Winstead Avenue,Rocky Mount,NC,27803,(252) 937-9829,stephanie@englewoodbaptist.com,https://kingsacademy.school/,Stephanie  Sharpe,35.94664552,-77.84834951
King's Palace Learning Center,5227 Friends School Road,Durham,NC,27705,"5227 Friends School Road Durham, NC 27705",500 Saunders Place,High Point,NC,27260,(919) 800-8134,bttaylor5419@gmail.com,NA,Brenda Kaye Taylor,36.00291946,-79.01971232
Knowledge Beginnings School,250 Cornerstone Dr.,Cary,NC,27519,"250 Cornerstone Dr. Cary, NC 27519",250 Cornerstone Dr.,Cary,NC,27519,(919) 466-8684,075301@klcorp.com,www.knowledgebeginnings.com,Linda  Pleasant,35.78814113,-78.84862264
LAB U. Prep,2801 East Independence Boulevard,Charlotte,NC,28205,"2801 East Independence Boulevard Charlotte, NC 28205",NA,NA,NC,NA,(980) 237-0442,labuprep@gmail.com,NA,Lisa  Dancy,35.20566273,-80.79441566
Lake House Academy,447 Lily Pad Lane,Flat Rock,NC,28731,"447 Lily Pad Lane Flat Rock, NC 28731",447 Lily Pad Lane,Flat Rock,NC,28731,(828) 242-8479,carlee.benfield@lakehouseacademy.com,www.lakehouseacademy.com,Carlee Benfield Hopkin,35.28465879,-82.43573042
Laurinburg Institute,125 McGirts Bridge Rd,Laurinburg,NC,28352,"125 McGirts Bridge Rd Laurinburg, NC 28352",125 McGirts Bridge Road,Laurinburg,NC,28352,(910) 276-0684,tiger1lnii@yahoo.com,www.laurinburginstitute.org,Mr. Frank H. McDuffie,34.78284301,-79.45571591
LeafSpring School at Cornelius,18120 Statesville Road,Cornelius,NC,28031,"18120 Statesville Road Cornelius, NC 28031",18120 Statesville Road,Cornelius,NC,28031,(704) 235-3020,lvann@leafspringcornelius.com,NA,Latarsha Nicole Vann,35.46009458,-80.86928407
Learn with the Best School,4900 Waters Edge Drive Suite 100,Raleigh,NC,27606,"4900 Waters Edge Drive Suite 100 Raleigh, NC 27606",4900 Waters Edge Drive Suite 100,Raleigh,NC,27606,(919) 696-0006,learnwiththebest@gmail.com,www.learnwiththebestschool.com,Mrs. Jill  Lerner,35.77416201,-78.71962506
Learning Community Sch,1220 Bee Tree Road,Swannanoa,NC,28778,"1220 Bee Tree Road Swannanoa, NC 28778",1220 Bee Tree Road,Swannanoa,NC,28778,(828) 686-3080,holly@thelearningcommunity.org,www.thelearningcommunity.org,Ms. Holly  Baumgartner,35.63288722,-82.40301707
L'cole-French School,5510 Munford road,raleigh,NC,27612,"5510 Munford road raleigh, NC 27612",5510 munford road,Raleigh,NC,27612,(919) 790-1219,l.ecole.fsr@gmail.com,https://www.lecole-fisr.org/,Marie-Claire  Ribeill,35.85572076,-78.70124511
Lee Christian School,3220 Keller Andrews Road,Sanford,NC,27330,"3220 Keller Andrews Road Sanford, NC 27330",3220 Keller Andrews Road,Sanford,NC,27330,(919) 708-5115,k.berndt@leechristian.org,www.leechristianschool.org,Andres E. Ricabal,35.46007731,-79.20425876
Lee Park Preparatory School,2505 Morgan Mill Road,Monroe,NC,28110,"2505 Morgan Mill Road Monroe, NC 28110",2490 Morgan Mill Road,Monroe,NC,28110,(704) 207-5633,ms.rhoden@leeparkprep.org,https://leeparkchurch.org/lee-park-prep/,Landon  Keziah,35.00810981,-80.51739601
Lemmon Tree Academy,3311 Cal Sandburg Court,Raleigh,NC,27610,"3311 Cal Sandburg Court Raleigh, NC 27610",3311 Carl Sandburg Court,Raleigh,NC,27610,(919) 821-7436,rebecca@frankielemmonschool.org,NA,Rebecca  Smith,35.78025221,-78.58172015
Lerner School,1935 W. Cornwallis Road,Durham,NC,27705,"1935 W. Cornwallis Road Durham, NC 27705",1935 W. Cornwallis Road,Durham,NC,27705,(919) 286-5517,shalom@thelernerschool.org,jewishforgood.org/lerner,Jill  Madsen,35.98162078,-78.95369415
Level Cross Christian School,10169 US Hwy 220 Bus. N,Randleman,NC,27317,"10169 US Hwy 220 Bus. N Randleman, NC 27317",10169 US Highway 220 Bus. N,Randleman,NC,27317,(336) 495-1397,lccs@northstate.net,www.lccseagles.com,Mr. Scott  Hyatt,35.8867578,-79.80719696
Level Up Academy,6739 Lacey ln,Lucama,NC,27851,"6739 Lacey ln Lucama, NC 27851",301 Tarboro St.,Wilson,NC,27893,(252) 991-6958,levelupacademy.youth@gmail.com,NA,Geneva Smith Eason,35.64352756,-78.02581633
Liberty Christian Academy,215 Kinston Hwy,Richlands,NC,28574,"215 Kinston Hwy Richlands, NC 28574",215 Kinston Hwy,Richlands,NC,28574,(910) 430-0741,ccavanaugh@lcarichlands.org,www.liberty-academy.net,Ms. Cheryl  Cavanaugh,34.90651202,-77.56111952
Liberty Christian Academy,6548 Rockfish Road,Fayetteville,NC,28306,"6548 Rockfish Road Fayetteville, NC 28306",6548 Rockfish Road,Fayetteville,NC,28306,(910) 424-1205,libertychristian@yahoo.com,www.lcknights.com,Mr. Duncan  Edge,34.97813627,-78.99168635
Liberty Christian School,3864 Guess Road,Durham,NC,27705,"3864 Guess Road Durham, NC 27705",3864 Guess Road,Durham,NC,27705,(919) 471-5522,jenny.metzger@lbcdurham.org,www.lcsdurham.org,Mr. Kyler  Ketner,36.06190351,-78.92937878
Liberty Preparatory Christian Acad.,229 Midway Lake Rd,Mooresville,NC,28115,"229 Midway Lake Rd Mooresville, NC 28115",229 Midway Lake Rd,Mooresville,NC,28115,(704) 660-3933,deanofschool@libertyprepnc.com,www.libertyprepnc.com,Mr. Daniel  Amerman,35.53146004,-80.82918323
Lincoln Christian Academy,2168 Gastonia Hwy,Lincolnton,NC,28092,"2168 Gastonia Hwy Lincolnton, NC 28092",2168 Gastonia Hwy,Lincolnton,NC,28092,(704) 735-1559,audreyhovis@lincolnchristianacademy.org,NA,Audrey Danielle Hovis,35.44095058,-81.23504036
Lionheart Academy of the Triad,2802 St Leo's St,Greensboro,NC,27405,"2802 St Leo's St Greensboro, NC 27405",2802 St Leo's St,Greensboro,NC,27405,(336) 676-6075,jowens@lionheartacademy.com,lionheartacademy.com,Ms. Jessica  Owens-Brammer,36.11656413,-79.78606625
Little Ivy Baptist Academy,1053 Crossroads Parkway,Mars Hill,NC,28754,"1053 Crossroads Parkway Mars Hill, NC 28754",1053 Crossroads Pkwy,Mars Hill,NC,28754,(828) 779-1991,pastorscottdotson@gmail.com,NA,Pastor Scott  Dotson,35.82647421,-82.53261361
Living Water Christian School,3980 Gum Branch Road,Jacksonville,NC,28540,"3980 Gum Branch Road Jacksonville, NC 28540",3980 Gum Branch Road,Jacksonville,NC,28540,(910) 938-7017,amanda@lwcs.net,www.lwcs.net,Mr. Amanda  Royal,34.8077348,-77.44932596
Living Waters Christian School,2822 Cashwell Drive,Goldsboro,NC,27534,"2822 Cashwell Drive Goldsboro, NC 27534",1501 N. William Street,Goldsboro,NC,27530,(919) 750-7841,4lwcprep@gmail.com,www.livingwaterschristianschool.com,Shelby W. Reed-Morris,35.37654199,-77.94783049
Living Word Christian Academy,313 Newsome Road,King,NC,27021,"313 Newsome Road King, NC 27021",321 Newsome Road,King,NC,27021,(336) 416-8326,lwcaking@gmail.com,Www.lwcaking.com,Stacey  McCraw,36.26301271,-80.37501715
Long Shoals Wesleyan Academy,3032 Wesleyan Church Road,Lincolnton,NC,28092,"3032 Wesleyan Church Road Lincolnton, NC 28092",3032 Wesleyan Church Road,Lincolnton,NC,28092,(704) 736-7282,sberryhill@longshoalsacademy.org,www.longshoalsacademy.com,Mrs. Sheila  Berryhill,35.41734276,-81.23648793
Lucy Daniels Center,9003 Weston Parkway,Cary,NC,27513,"9003 Weston Parkway Cary, NC 27513",9003 Weston Parkway,Cary,NC,27513,(919) 677-1400,info@lucydanielscenter.org,www.lucydanielscenter.org,Jennifer  Reid,35.82754364,-78.79920772
Lyrical Academy,1801 Oaklawn Avenue,Charlotte,NC,28216,"1801 Oaklawn Avenue Charlotte, NC 28216",NA,NA,NC,NA,(704) 372-3742,pburkins@charlottecsa.org,NA,Patsy P Burkins,35.25055608,-80.85071652
Macon County Juvenile School,1950 Lakeside Drive,Franklin,NC,28734,"1950 Lakeside Drive Franklin, NC 28734",1950 Lakeside Drive,Franklin,NC,28734,(828) 361-3147,MaconPM@MHFC.org,www.mhfc.org,Bill  Glass,35.19592261,-83.37086728
Madinah Quran Academy,1329 Ridge rd,Raleigh,NC,27607,"1329 Ridge rd Raleigh, NC 27607",1329 Ridge Road,Raleigh,NC,27607,(919) 618-5478,contact@mqyc.org,https://www.mqyc.org/,Abdallh  khadra,35.80442712,-78.68726425
Mariposa School,203 Gregson Drive,Cary,NC,27511,"203 Gregson Drive Cary, NC 27511",203 Gregson Drive,Cary,NC,27511,(919) 461-0600,cwensil@mariposaschool.org,www.mariposaschool.org,Chris  Wensil,35.73856041,-78.80542845
Marvin Academy,1525 Crane Road,Waxhaw,NC,28173,"1525 Crane Road Waxhaw, NC 28173",1525 Crane Road,Waxhaw,NC,28713,(704) 256-3060,admin@marvinacademy.org,www.marvinacademy.org,Ms. Jarrika  Coutchure,35.00264466,-80.78576859
Matthews Christian Academy,2724 Margaret Wallace Road,Matthews,NC,28105,"2724 Margaret Wallace Road Matthews, NC 28105",2724 Margaret Wallace Road,Matthews,NC,28015,(704) 535-1694,bparker@biblebaptistministries.org,www.matthewschristian.org,Brad  Parker,35.16057884,-80.73020909
Melanin Village Prep,265 Eastchester Drive Suite 133  Box 106,High Point,NC,27262,"265 Eastchester Drive Suite 133  Box 106 High Point, NC 27262",200 N Regan Street,Greensboro,NC,27401,(743) 222-3871,programs@melaninvillage.org,NA,Brenaea  Fairchild,35.98321652,-80.01838014
Melmark Carolinas,13325 South Point Blvd,Charlotte,NC,28273,"13325 South Point Blvd Charlotte, NC 28273",8614 Pineville Matthews Rd,Charlotte,NC,28273,(704) 704-3941,bstevenson@melmarkne.org,http://www.melmark.org/,Brad  Stevenson,35.1141267,-80.95900795
Mercy Mountain Academy,5046 Old NC Hwy 13,Asheboro,NC,27205,"5046 Old NC Hwy 13 Asheboro, NC 27205",5046 Old NC Hwy 13,Asheboro,NC,27205,(304) 716-1687,mercymtnacademy@gmail.com,NA,Lori Lynne Harvey,35.61008865,-79.73598568
Mill Creek Mennonite School,2432 Seven Paths Road,Louisburg,NC,27549,"2432 Seven Paths Road Louisburg, NC 27549",339 Preacher Ball Road,Louisburg,NC,27549,(919) 497-7824,ncmillers7@outlook.com,NA,Wesley  Miller,36.03374405,-78.1983437
MillennialViewSchoolOfTheArts,1711 Brookridge Dr.,Elizabeth city,NC,27909,"1711 Brookridge Dr. Elizabeth city, NC 27909",1000 Maple St.,Elizabeth city,NC,27909,(252) 331-2811,Millennialvsota@gmail.com,NA,Wade Wayland Staten,36.2770909,-76.22050764
Millersville Christian Academy,130 Millersville Church Road,Taylorsville,NC,28681,"130 Millersville Church Road Taylorsville, NC 28681",130 Millersville Church Road,Taylorsville,NC,28681,(828) 352-9600,dulab@millersvillechristianacademy.org,millersvillechristianacademy.org,Brent  Dula,35.85283377,-81.18505244
Mills River Seventh-day Adventist,2142 Jeffress Road,Mills River,NC,28759,"2142 Jeffress Road Mills River, NC 28759",2142 Jeffress Road,Mills River,NC,28759,(828) 785-2319,millsriversdaschool@gmail.com,www.millsriversdaschool.com,Sue  Holt,35.39922074,-82.56421189
Mind and Soul School,5973 McLeod Drive,Maxton,NC,28364,"5973 McLeod Drive Maxton, NC 28364",5973 McLeod Drive,Maxton,NC,28364,(910) 827-1169,shereesampson@yahoo.com,NA,Mrs. Sheree  Sampson,34.66868147,-79.32750597
Mintz Christian Academy,2741 Mintz Road,Roseboro,NC,28382,"2741 Mintz Road Roseboro, NC 28382",2741 Mintz Road,Roseboro,NC,28382,(910) 490-9221,mcaoffice@mcanc.com,www.mcanc.com,Jim  Workman,34.89469679,-78.47494595
Miracle Tabernacle Academy,2301 Ray Rd.,Spring Lake,NC,28390,"2301 Ray Rd. Spring Lake, NC 28390",2301 Ray Road,Spring Lake,NC,28390,(910) 568-0493,miracletabernacleacademy@yahoo.com,NA,Ramona  Williams,35.24066513,-78.96820053
Miss Charlie's Child Develop. Center,700 N. East Street,Kinston,NC,28501,"700 N. East Street Kinston, NC 28501",700 N. East Street,Kinston,NC,28501,(919) 225-3215,teachourkids15@yahoo.com,NA,Ms. Tabatha  Teach,35.26770297,-77.57581457
Mitchener University Academy,714 Wilkins St.,Smithfield,NC,27577,"714 Wilkins St. Smithfield, NC 27577",714 Wilkins St,Smithfield,NC,27577,(919) 879-9842,mosesmitchener@muanc.net,www.muanc.net,Moses Robert Lee Mitchener,35.51445486,-78.33698782
Montessori at Sandy Ford School,2931 Sandy Ford Road,Newton,NC,28658,"2931 Sandy Ford Road Newton, NC 28658",2931 Sandy Ford Rd,Newton,NC,28658,(828) 294-7478,beckys@montessoriatsandyford.org,www.montessoriatsandyford.org,Mrs. Mary Helen  Cline,35.66130529,-81.2867572
Montessori Childrens HouseWF,802 Mill Street,Wake Forest,NC,27587,"802 Mill Street Wake Forest, NC 27587",NA,NA,NC,NA,(919) 805-2926,mchwf@hotmail.com,NA,Janet G Wallace,35.98932141,-78.50209772
Montessori Children's School,714 Bates Street,Jacksonville,NC,28540,"714 Bates Street Jacksonville, NC 28540",714 Bates Street,Jacksonville,NC,28540,(910) 938-3826,mbrusaw@mcsjax.org,www.mcsjax.org,Maegan  Brusaw,34.7718246,-77.4094596
